[{"locId":"L152046","subId":"S135447170","numSpecies":24,"obsDt":"29 Apr 2023","obsTime":"11:55","subID":"S135447170","loc":{"locId":"L152046","name":"Lordsburg Sewage Ponds","latitude":32.3592192,"longitude":-108.6999428,"countryCode":"US","countryName":"United States","subnational1Name":"New Mexico","subnational1Code":"US-NM","subnational2Code":"US-NM-023","subnational2Name":"Hidalgo","isHotspot":true,"lat":32.3592192,"lng":-108.6999428,"locName":"Lordsburg Sewage Ponds","hierarchicalName":"Lordsburg Sewage Ponds, Hidalgo, New Mexico, US","locID":"L152046"}},{"locId":"L112571","subId":"S135433035","numSpecies":1,"obsDt":"29 Apr 2023","obsTime":"11:23","subID":"S135433035","loc":{"locId":"L112571","name":"Grant","latitude":32.5378,"longitude":-108.35512,"countryCode":"US","countryName":"United States","subnational1Name":"New Mexico","subnational1Code":"US-NM","subnational2Code":"US-NM-017","subnational2Name":"Grant","isHotspot":false,"lat":32.5378,"lng":-108.35512,"locName":"Grant","hierarchicalName":"Grant, Grant, New Mexico, US","locID":"L112571"}},{"locId":"L112578","subId":"S135430023","numSpecies":5,"obsDt":"29 Apr 2023","obsTime":"10:38","subID":"S135430023","loc":{"locId":"L112578","name":"Luna","latitude":32.19616,"longitude":-107.752,"countryCode":"US","countryName":"United States","subnational1Name":"New Mexico","subnational1Code":"US-NM","subnational2Code":"US-NM-029","subnational2Name":"Luna","isHotspot":false,"lat":32.19616,"lng":-107.752,"locName":"Luna","hierarchicalName":"Luna, Luna, New Mexico, US","locID":"L112578"}},{"locId":"L366755","subId":"S135415547","numSpecies":53,"obsDt":"29 Apr 2023","obsTime":"06:26","subID":"S135415547","loc":{"locId":"L366755","name":"Randall's Pool","latitude":31.8349826,"longitude":-106.6082811,"countryCode":"US","countryName":"United States","subnational1Name":"New Mexico","subnational1Code":"US-NM","subnational2Code":"US-NM-013","subnational2Name":"Dona Ana","isHotspot":true,"lat":31.8349826,"lng":-106.6082811,"locName":"Randall's Pool","hierarchicalName":"Randall's Pool, Dona Ana, New Mexico, US","locID":"L366755"}},{"locId":"L23895577","subId":"S135352071","numSpecies":1,"obsDt":"28 Apr 2023","obsTime":"19:51","subID":"S135352071","loc":{"locId":"L23895577","name":"McNutt Road, Sunland Park, New Mexico, US (31.831, -106.611)","latitude":31.8313434,"longitude":-106.6109284,"countryCode":"US","countryName":"United States","subnational1Name":"New Mexico","subnational1Code":"US-NM","subnational2Code":"US-NM-013","subnational2Name":"Dona Ana","isHotspot":false,"lat":31.8313434,"lng":-106.6109284,"locName":"McNutt Road, Sunland Park, New Mexico, US (31.831, -106.611)","hierarchicalName":"McNutt Road, Sunland Park, New Mexico, US (31.831, -106.611), Dona Ana, New Mexico, US","locID":"L23895577"}},{"locId":"L23895394","subId":"S135351112","numSpecies":23,"obsDt":"28 Apr 2023","obsTime":"18:57","subID":"S135351112","loc":{"locId":"L23895394","name":"4650 McNutt Road, Sunland Park, New Mexico, US (31.831, -106.609)","latitude":31.8308831,"longitude":-106.608652,"countryCode":"US","countryName":"United States","subnational1Name":"New Mexico","subnational1Code":"US-NM","subnational2Code":"US-NM-013","subnational2Name":"Dona Ana","isHotspot":false,"lat":31.8308831,"lng":-106.608652,"locName":"4650 McNutt Road, Sunland Park, New Mexico, US (31.831, -106.609)","hierarchicalName":"4650 McNutt Road, Sunland Park, New Mexico, US (31.831, -106.609), Dona Ana, New Mexico, US","locID":"L23895394"}},{"locId":"L129066","subId":"S135343652","numSpecies":21,"obsDt":"28 Apr 2023","obsTime":"16:42","subID":"S135343652","loc":{"locId":"L129066","name":"Rio Bosque Park (FWTX 11)","latitude":31.6408997,"longitude":-106.3099976,"countryCode":"US","countryName":"United States","subnational1Name":"Texas","subnational1Code":"US-TX","subnational2Code":"US-TX-141","subnational2Name":"El Paso","isHotspot":true,"lat":31.6408997,"lng":-106.3099976,"locName":"Rio Bosque Park (FWTX 11)","hierarchicalName":"Rio Bosque Park (FWTX 11), El Paso, Texas, US","locID":"L129066"}},{"locId":"L14597027","subId":"S135331411","numSpecies":27,"obsDt":"28 Apr 2023","obsTime":"15:18","subID":"S135331411","loc":{"locId":"L14597027","name":"Horizon City RO Ponds","latitude":31.680525,"longitude":-106.15563,"countryCode":"US","countryName":"United States","subnational1Name":"Texas","subnational1Code":"US-TX","subnational2Code":"US-TX-141","subnational2Name":"El Paso","isHotspot":true,"lat":31.680525,"lng":-106.15563,"locName":"Horizon City RO Ponds","hierarchicalName":"Horizon City RO Ponds, El Paso, Texas, US","locID":"L14597027"}},{"locId":"L113395","subId":"S135322746","numSpecies":4,"obsDt":"28 Apr 2023","obsTime":"14:04","subID":"S135322746","loc":{"locId":"L113395","name":"Hudspeth","latitude":31.32292,"longitude":-105.4526,"countryCode":"US","countryName":"United States","subnational1Name":"Texas","subnational1Code":"US-TX","subnational2Code":"US-TX-229","subnational2Name":"Hudspeth","isHotspot":false,"lat":31.32292,"lng":-105.4526,"locName":"Hudspeth","hierarchicalName":"Hudspeth, Hudspeth, Texas, US","locID":"L113395"}},{"locId":"L113402","subId":"S135312548","numSpecies":2,"obsDt":"28 Apr 2023","obsTime":"13:53","subID":"S135312548","loc":{"locId":"L113402","name":"Jeff Davis","latitude":30.75743,"longitude":-104.21538,"countryCode":"US","countryName":"United States","subnational1Name":"Texas","subnational1Code":"US-TX","subnational2Code":"US-TX-243","subnational2Name":"Jeff Davis","isHotspot":false,"lat":30.75743,"lng":-104.21538,"locName":"Jeff Davis","hierarchicalName":"Jeff Davis, Jeff Davis, Texas, US","locID":"L113402"}},{"locId":"L113335","subId":"S135315766","numSpecies":7,"obsDt":"28 Apr 2023","obsTime":"13:14","subID":"S135315766","loc":{"locId":"L113335","name":"Culberson","latitude":31.34459,"longitude":-104.4708,"countryCode":"US","countryName":"United States","subnational1Name":"Texas","subnational1Code":"US-TX","subnational2Code":"US-TX-109","subnational2Name":"Culberson","isHotspot":false,"lat":31.34459,"lng":-104.4708,"locName":"Culberson","hierarchicalName":"Culberson, Culberson, Texas, US","locID":"L113335"}},{"locId":"L113469","subId":"S135310077","numSpecies":7,"obsDt":"28 Apr 2023","obsTime":"12:24","subID":"S135310077","loc":{"locId":"L113469","name":"Presidio","latitude":29.95446,"longitude":-104.38744,"countryCode":"US","countryName":"United States","subnational1Name":"Texas","subnational1Code":"US-TX","subnational2Code":"US-TX-377","subnational2Name":"Presidio","isHotspot":false,"lat":29.95446,"lng":-104.38744,"locName":"Presidio","hierarchicalName":"Presidio, Presidio, Texas, US","locID":"L113469"}},{"locId":"L128909","subId":"S135286545","numSpecies":22,"obsDt":"28 Apr 2023","obsTime":"09:33","subID":"S135286545","loc":{"locId":"L128909","name":"Big Bend NP--Sam Nail Ranch","latitude":29.2792853,"longitude":-103.3688332,"countryCode":"US","countryName":"United States","subnational1Name":"Texas","subnational1Code":"US-TX","subnational2Code":"US-TX-043","subnational2Name":"Brewster","isHotspot":true,"lat":29.2792853,"lng":-103.3688332,"locName":"Big Bend NP--Sam Nail Ranch","hierarchicalName":"Big Bend NP--Sam Nail Ranch, Brewster, Texas, US","locID":"L128909"}},{"locId":"L23880852","subId":"S135277635","numSpecies":1,"obsDt":"28 Apr 2023","obsTime":"09:17","subID":"S135277635","loc":{"locId":"L23880852","name":"Gano Springs, Big Bend National Park, Texas, US (29.352, -103.301)","latitude":29.3516338,"longitude":-103.301375,"countryCode":"US","countryName":"United States","subnational1Name":"Texas","subnational1Code":"US-TX","subnational2Code":"US-TX-043","subnational2Name":"Brewster","isHotspot":false,"lat":29.3516338,"lng":-103.301375,"locName":"Gano Springs, Big Bend National Park, Texas, US (29.352, -103.301)","hierarchicalName":"Gano Springs, Big Bend National Park, Texas, US (29.352, -103.301), Brewster, Texas, US","locID":"L23880852"}},{"locId":"L2170366","subId":"S135277671","numSpecies":22,"obsDt":"28 Apr 2023","obsTime":"07:11","subID":"S135277671","loc":{"locId":"L2170366","name":"Big Bend NP--Chisos Basin WTP","latitude":29.2786178,"longitude":-103.3070424,"countryCode":"US","countryName":"United States","subnational1Name":"Texas","subnational1Code":"US-TX","subnational2Code":"US-TX-043","subnational2Name":"Brewster","isHotspot":true,"lat":29.2786178,"lng":-103.3070424,"locName":"Big Bend NP--Chisos Basin WTP","hierarchicalName":"Big Bend NP--Chisos Basin WTP, Brewster, Texas, US","locID":"L2170366"}},{"locId":"L7522013","subId":"S135297394","numSpecies":38,"obsDt":"28 Apr 2023","obsTime":"06:50","subID":"S135297394","loc":{"locId":"L7522013","name":"Big Bend NP--Oak Spring Trail","latitude":29.2825435,"longitude":-103.3338618,"countryCode":"US","countryName":"United States","subnational1Name":"Texas","subnational1Code":"US-TX","subnational2Code":"US-TX-043","subnational2Name":"Brewster","isHotspot":true,"lat":29.2825435,"lng":-103.3338618,"locName":"Big Bend NP--Oak Spring Trail","hierarchicalName":"Big Bend NP--Oak Spring Trail, Brewster, Texas, US","locID":"L7522013"}},{"locId":"L2262809","subId":"S135277705","numSpecies":1,"obsDt":"27 Apr 2023","obsTime":"20:59","subID":"S135277705","loc":{"locId":"L2262809","name":"Big Bend NP--Chisos Basin Campground","latitude":29.2761238,"longitude":-103.3025122,"countryCode":"US","countryName":"United States","subnational1Name":"Texas","subnational1Code":"US-TX","subnational2Code":"US-TX-043","subnational2Name":"Brewster","isHotspot":true,"lat":29.2761238,"lng":-103.3025122,"locName":"Big Bend NP--Chisos Basin Campground","hierarchicalName":"Big Bend NP--Chisos Basin Campground, Brewster, Texas, US","locID":"L2262809"}},{"locId":"L2262809","subId":"S135277742","numSpecies":6,"obsDt":"27 Apr 2023","obsTime":"18:49","subID":"S135277742","loc":{"locId":"L2262809","name":"Big Bend NP--Chisos Basin Campground","latitude":29.2761238,"longitude":-103.3025122,"countryCode":"US","countryName":"United States","subnational1Name":"Texas","subnational1Code":"US-TX","subnational2Code":"US-TX-043","subnational2Name":"Brewster","isHotspot":true,"lat":29.2761238,"lng":-103.3025122,"locName":"Big Bend NP--Chisos Basin Campground","hierarchicalName":"Big Bend NP--Chisos Basin Campground, Brewster, Texas, US","locID":"L2262809"}},{"locId":"L128904","subId":"S135209992","numSpecies":24,"obsDt":"27 Apr 2023","obsTime":"12:38","subID":"S135209992","loc":{"locId":"L128904","name":"Big Bend NP--Laguna Meadow","latitude":29.254,"longitude":-103.308,"countryCode":"US","countryName":"United States","subnational1Name":"Texas","subnational1Code":"US-TX","subnational2Code":"US-TX-043","subnational2Name":"Brewster","isHotspot":true,"lat":29.254,"lng":-103.308,"locName":"Big Bend NP--Laguna Meadow","hierarchicalName":"Big Bend NP--Laguna Meadow, Brewster, Texas, US","locID":"L128904"}},{"locId":"L1270009","subId":"S135210073","numSpecies":17,"obsDt":"27 Apr 2023","obsTime":"10:48","subID":"S135210073","loc":{"locId":"L1270009","name":"Big Bend NP--Colima Trail","latitude":29.241735,"longitude":-103.3039713,"countryCode":"US","countryName":"United States","subnational1Name":"Texas","subnational1Code":"US-TX","subnational2Code":"US-TX-043","subnational2Name":"Brewster","isHotspot":true,"lat":29.241735,"lng":-103.3039713,"locName":"Big Bend NP--Colima Trail","hierarchicalName":"Big Bend NP--Colima Trail, Brewster, Texas, US","locID":"L1270009"}},{"locId":"L128892","subId":"S135210249","numSpecies":20,"obsDt":"27 Apr 2023","obsTime":"09:46","subID":"S135210249","loc":{"locId":"L128892","name":"Big Bend NP--Boot Spring","latitude":29.2413998,"longitude":-103.2970963,"countryCode":"US","countryName":"United States","subnational1Name":"Texas","subnational1Code":"US-TX","subnational2Code":"US-TX-043","subnational2Name":"Brewster","isHotspot":true,"lat":29.2413998,"lng":-103.2970963,"locName":"Big Bend NP--Boot Spring","hierarchicalName":"Big Bend NP--Boot Spring, Brewster, Texas, US","locID":"L128892"}},{"locId":"L3623818","subId":"S135210164","numSpecies":23,"obsDt":"27 Apr 2023","obsTime":"08:07","subID":"S135210164","loc":{"locId":"L3623818","name":"Big Bend NP--Boot Canyon Trail","latitude":29.2482183,"longitude":-103.2933675,"countryCode":"US","countryName":"United States","subnational1Name":"Texas","subnational1Code":"US-TX","subnational2Code":"US-TX-043","subnational2Name":"Brewster","isHotspot":true,"lat":29.2482183,"lng":-103.2933675,"locName":"Big Bend NP--Boot Canyon Trail","hierarchicalName":"Big Bend NP--Boot Canyon Trail, Brewster, Texas, US","locID":"L3623818"}},{"locId":"L714949","subId":"S135210025","numSpecies":17,"obsDt":"27 Apr 2023","obsTime":"06:44","subID":"S135210025","loc":{"locId":"L714949","name":"Big Bend NP--Pinnacles Trail","latitude":29.2518263,"longitude":-103.3002913,"countryCode":"US","countryName":"United States","subnational1Name":"Texas","subnational1Code":"US-TX","subnational2Code":"US-TX-043","subnational2Name":"Brewster","isHotspot":true,"lat":29.2518263,"lng":-103.3002913,"locName":"Big Bend NP--Pinnacles Trail","hierarchicalName":"Big Bend NP--Pinnacles Trail, Brewster, Texas, US","locID":"L714949"}},{"locId":"L714949","subId":"S135209921","numSpecies":0,"obsDt":"27 Apr 2023","obsTime":"06:10","subID":"S135209921","loc":{"locId":"L714949","name":"Big Bend NP--Pinnacles Trail","latitude":29.2518263,"longitude":-103.3002913,"countryCode":"US","countryName":"United States","subnational1Name":"Texas","subnational1Code":"US-TX","subnational2Code":"US-TX-043","subnational2Name":"Brewster","isHotspot":true,"lat":29.2518263,"lng":-103.3002913,"locName":"Big Bend NP--Pinnacles Trail","hierarchicalName":"Big Bend NP--Pinnacles Trail, Brewster, Texas, US","locID":"L714949"}},{"locId":"L1234575","subId":"S135222724","numSpecies":1,"obsDt":"26 Apr 2023","obsTime":"21:30","subID":"S135222724","loc":{"locId":"L1234575","name":"Big Bend NP--Chisos Mountains Lodge area","latitude":29.2699985,"longitude":-103.3004522,"countryCode":"US","countryName":"United States","subnational1Name":"Texas","subnational1Code":"US-TX","subnational2Code":"US-TX-043","subnational2Name":"Brewster","isHotspot":true,"lat":29.2699985,"lng":-103.3004522,"locName":"Big Bend NP--Chisos Mountains Lodge area","hierarchicalName":"Big Bend NP--Chisos Mountains Lodge area, Brewster, Texas, US","locID":"L1234575"}},{"locId":"L8977614","subId":"S135131140","numSpecies":22,"obsDt":"26 Apr 2023","obsTime":"17:54","subID":"S135131140","loc":{"locId":"L8977614","name":"Big Bend NP--Basin Loop Trail","latitude":29.2643445,"longitude":-103.3031358,"countryCode":"US","countryName":"United States","subnational1Name":"Texas","subnational1Code":"US-TX","subnational2Code":"US-TX-043","subnational2Name":"Brewster","isHotspot":true,"lat":29.2643445,"lng":-103.3031358,"locName":"Big Bend NP--Basin Loop Trail","hierarchicalName":"Big Bend NP--Basin Loop Trail, Brewster, Texas, US","locID":"L8977614"}},{"locId":"L1234575","subId":"S135098312","numSpecies":1,"obsDt":"26 Apr 2023","obsTime":"14:12","subID":"S135098312","loc":{"locId":"L1234575","name":"Big Bend NP--Chisos Mountains Lodge area","latitude":29.2699985,"longitude":-103.3004522,"countryCode":"US","countryName":"United States","subnational1Name":"Texas","subnational1Code":"US-TX","subnational2Code":"US-TX-043","subnational2Name":"Brewster","isHotspot":true,"lat":29.2699985,"lng":-103.3004522,"locName":"Big Bend NP--Chisos Mountains Lodge area","hierarchicalName":"Big Bend NP--Chisos Mountains Lodge area, Brewster, Texas, US","locID":"L1234575"}},{"locId":"L2170366","subId":"S135098581","numSpecies":20,"obsDt":"26 Apr 2023","obsTime":"12:13","subID":"S135098581","loc":{"locId":"L2170366","name":"Big Bend NP--Chisos Basin WTP","latitude":29.2786178,"longitude":-103.3070424,"countryCode":"US","countryName":"United States","subnational1Name":"Texas","subnational1Code":"US-TX","subnational2Code":"US-TX-043","subnational2Name":"Brewster","isHotspot":true,"lat":29.2786178,"lng":-103.3070424,"locName":"Big Bend NP--Chisos Basin WTP","hierarchicalName":"Big Bend NP--Chisos Basin WTP, Brewster, Texas, US","locID":"L2170366"}},{"locId":"L128898","subId":"S135098714","numSpecies":29,"obsDt":"26 Apr 2023","obsTime":"10:02","subID":"S135098714","loc":{"locId":"L128898","name":"Big Bend NP--Dugout Wells","latitude":29.2712002,"longitude":-103.1352997,"countryCode":"US","countryName":"United States","subnational1Name":"Texas","subnational1Code":"US-TX","subnational2Code":"US-TX-043","subnational2Name":"Brewster","isHotspot":true,"lat":29.2712002,"lng":-103.1352997,"locName":"Big Bend NP--Dugout Wells","hierarchicalName":"Big Bend NP--Dugout Wells, Brewster, Texas, US","locID":"L128898"}},{"locId":"L1052368","subId":"S135098745","numSpecies":43,"obsDt":"26 Apr 2023","obsTime":"07:54","subID":"S135098745","loc":{"locId":"L1052368","name":"Big Bend NP--Daniel's Ranch Rd.","latitude":29.1858683,"longitude":-102.9679656,"countryCode":"US","countryName":"United States","subnational1Name":"Texas","subnational1Code":"US-TX","subnational2Code":"US-TX-043","subnational2Name":"Brewster","isHotspot":true,"lat":29.1858683,"lng":-102.9679656,"locName":"Big Bend NP--Daniel's Ranch Rd.","hierarchicalName":"Big Bend NP--Daniel's Ranch Rd., Brewster, Texas, US","locID":"L1052368"}},{"locId":"L1282897","subId":"S135098815","numSpecies":18,"obsDt":"26 Apr 2023","obsTime":"06:46","subID":"S135098815","loc":{"locId":"L1282897","name":"Big Bend NP--Rio Grande Village Nature Trail","latitude":29.1782435,"longitude":-102.9531759,"countryCode":"US","countryName":"United States","subnational1Name":"Texas","subnational1Code":"US-TX","subnational2Code":"US-TX-043","subnational2Name":"Brewster","isHotspot":true,"lat":29.1782435,"lng":-102.9531759,"locName":"Big Bend NP--Rio Grande Village Nature Trail","hierarchicalName":"Big Bend NP--Rio Grande Village Nature Trail, Brewster, Texas, US","locID":"L1282897"}},{"locId":"L128907","subId":"S135098984","numSpecies":2,"obsDt":"25 Apr 2023","obsTime":"20:48","subID":"S135098984","loc":{"locId":"L128907","name":"Big Bend NP--Rio Grande Village (FWTX 44)","latitude":29.1809226,"longitude":-102.9557133,"countryCode":"US","countryName":"United States","subnational1Name":"Texas","subnational1Code":"US-TX","subnational2Code":"US-TX-043","subnational2Name":"Brewster","isHotspot":true,"lat":29.1809226,"lng":-102.9557133,"locName":"Big Bend NP--Rio Grande Village (FWTX 44)","hierarchicalName":"Big Bend NP--Rio Grande Village (FWTX 44), Brewster, Texas, US","locID":"L128907"}},{"locId":"L1282897","subId":"S135099010","numSpecies":8,"obsDt":"25 Apr 2023","obsTime":"20:23","subID":"S135099010","loc":{"locId":"L1282897","name":"Big Bend NP--Rio Grande Village Nature Trail","latitude":29.1782435,"longitude":-102.9531759,"countryCode":"US","countryName":"United States","subnational1Name":"Texas","subnational1Code":"US-TX","subnational2Code":"US-TX-043","subnational2Name":"Brewster","isHotspot":true,"lat":29.1782435,"lng":-102.9531759,"locName":"Big Bend NP--Rio Grande Village Nature Trail","hierarchicalName":"Big Bend NP--Rio Grande Village Nature Trail, Brewster, Texas, US","locID":"L1282897"}},{"locId":"L128907","subId":"S135099047","numSpecies":4,"obsDt":"25 Apr 2023","obsTime":"20:15","subID":"S135099047","loc":{"locId":"L128907","name":"Big Bend NP--Rio Grande Village (FWTX 44)","latitude":29.1809226,"longitude":-102.9557133,"countryCode":"US","countryName":"United States","subnational1Name":"Texas","subnational1Code":"US-TX","subnational2Code":"US-TX-043","subnational2Name":"Brewster","isHotspot":true,"lat":29.1809226,"lng":-102.9557133,"locName":"Big Bend NP--Rio Grande Village (FWTX 44)","hierarchicalName":"Big Bend NP--Rio Grande Village (FWTX 44), Brewster, Texas, US","locID":"L128907"}},{"locId":"L128902","subId":"S135098572","numSpecies":10,"obsDt":"25 Apr 2023","obsTime":"19:25","subID":"S135098572","loc":{"locId":"L128902","name":"Big Bend NP--Hot Springs","latitude":29.1823997,"longitude":-102.9935989,"countryCode":"US","countryName":"United States","subnational1Name":"Texas","subnational1Code":"US-TX","subnational2Code":"US-TX-043","subnational2Name":"Brewster","isHotspot":true,"lat":29.1823997,"lng":-102.9935989,"locName":"Big Bend NP--Hot Springs","hierarchicalName":"Big Bend NP--Hot Springs, Brewster, Texas, US","locID":"L128902"}},{"locId":"L1052368","subId":"S135027924","numSpecies":34,"obsDt":"25 Apr 2023","obsTime":"18:58","subID":"S135027924","loc":{"locId":"L1052368","name":"Big Bend NP--Daniel's Ranch Rd.","latitude":29.1858683,"longitude":-102.9679656,"countryCode":"US","countryName":"United States","subnational1Name":"Texas","subnational1Code":"US-TX","subnational2Code":"US-TX-043","subnational2Name":"Brewster","isHotspot":true,"lat":29.1858683,"lng":-102.9679656,"locName":"Big Bend NP--Daniel's Ranch Rd.","hierarchicalName":"Big Bend NP--Daniel's Ranch Rd., Brewster, Texas, US","locID":"L1052368"}},{"locId":"L128907","subId":"S135098503","numSpecies":30,"obsDt":"25 Apr 2023","obsTime":"17:38","subID":"S135098503","loc":{"locId":"L128907","name":"Big Bend NP--Rio Grande Village (FWTX 44)","latitude":29.1809226,"longitude":-102.9557133,"countryCode":"US","countryName":"United States","subnational1Name":"Texas","subnational1Code":"US-TX","subnational2Code":"US-TX-043","subnational2Name":"Brewster","isHotspot":true,"lat":29.1809226,"lng":-102.9557133,"locName":"Big Bend NP--Rio Grande Village (FWTX 44)","hierarchicalName":"Big Bend NP--Rio Grande Village (FWTX 44), Brewster, Texas, US","locID":"L128907"}},{"locId":"L128909","subId":"S134990183","numSpecies":23,"obsDt":"25 Apr 2023","obsTime":"12:07","subID":"S134990183","loc":{"locId":"L128909","name":"Big Bend NP--Sam Nail Ranch","latitude":29.2792853,"longitude":-103.3688332,"countryCode":"US","countryName":"United States","subnational1Name":"Texas","subnational1Code":"US-TX","subnational2Code":"US-TX-043","subnational2Name":"Brewster","isHotspot":true,"lat":29.2792853,"lng":-103.3688332,"locName":"Big Bend NP--Sam Nail Ranch","hierarchicalName":"Big Bend NP--Sam Nail Ranch, Brewster, Texas, US","locID":"L128909"}},{"locId":"L23825286","subId":"S134974707","numSpecies":7,"obsDt":"25 Apr 2023","obsTime":"10:33","subID":"S134974707","loc":{"locId":"L23825286","name":"Snake Road, Texas, US (29.496, -103.466)","latitude":29.4957427,"longitude":-103.466262,"countryCode":"US","countryName":"United States","subnational1Name":"Texas","subnational1Code":"US-TX","subnational2Code":"US-TX-043","subnational2Name":"Brewster","isHotspot":false,"lat":29.4957427,"lng":-103.466262,"locName":"Snake Road, Texas, US (29.496, -103.466)","hierarchicalName":"Snake Road, Texas, US (29.496, -103.466), Brewster, Texas, US","locID":"L23825286"}},{"locId":"L263942","subId":"S134974659","numSpecies":44,"obsDt":"25 Apr 2023","obsTime":"07:17","subID":"S134974659","loc":{"locId":"L263942","name":"Christmas Mountains Oasis","latitude":29.4917768,"longitude":-103.4670389,"countryCode":"US","countryName":"United States","subnational1Name":"Texas","subnational1Code":"US-TX","subnational2Code":"US-TX-043","subnational2Name":"Brewster","isHotspot":true,"lat":29.4917768,"lng":-103.4670389,"locName":"Christmas Mountains Oasis","hierarchicalName":"Christmas Mountains Oasis, Brewster, Texas, US","locID":"L263942"}},{"locId":"L263942","subId":"S134974339","numSpecies":34,"obsDt":"24 Apr 2023","obsTime":"18:03","subID":"S134974339","loc":{"locId":"L263942","name":"Christmas Mountains Oasis","latitude":29.4917768,"longitude":-103.4670389,"countryCode":"US","countryName":"United States","subnational1Name":"Texas","subnational1Code":"US-TX","subnational2Code":"US-TX-043","subnational2Name":"Brewster","isHotspot":true,"lat":29.4917768,"lng":-103.4670389,"locName":"Christmas Mountains Oasis","hierarchicalName":"Christmas Mountains Oasis, Brewster, Texas, US","locID":"L263942"}},{"locId":"L23825215","subId":"S134974258","numSpecies":1,"obsDt":"24 Apr 2023","obsTime":"17:02","subID":"S134974258","loc":{"locId":"L23825215","name":"Texas 118, Alpine, Texas, US (30.002, -103.574)","latitude":30.0018035,"longitude":-103.5738671,"countryCode":"US","countryName":"United States","subnational1Name":"Texas","subnational1Code":"US-TX","subnational2Code":"US-TX-043","subnational2Name":"Brewster","isHotspot":false,"lat":30.0018035,"lng":-103.5738671,"locName":"Texas 118, Alpine, Texas, US (30.002, -103.574)","hierarchicalName":"Texas 118, Alpine, Texas, US (30.002, -103.574), Brewster, Texas, US","locID":"L23825215"}},{"locId":"L23808600","subId":"S134883443","numSpecies":6,"obsDt":"24 Apr 2023","obsTime":"13:05","subID":"S134883443","loc":{"locId":"L23808600","name":"Fort Davis, Texas, US (30.599, -103.907)","latitude":30.5992443,"longitude":-103.9067332,"countryCode":"US","countryName":"United States","subnational1Name":"Texas","subnational1Code":"US-TX","subnational2Code":"US-TX-243","subnational2Name":"Jeff Davis","isHotspot":false,"lat":30.5992443,"lng":-103.9067332,"locName":"Fort Davis, Texas, US (30.599, -103.907)","hierarchicalName":"Fort Davis, Texas, US (30.599, -103.907), Jeff Davis, Texas, US","locID":"L23808600"}},{"locId":"L128950","subId":"S134875162","numSpecies":30,"obsDt":"24 Apr 2023","obsTime":"10:59","subID":"S134875162","loc":{"locId":"L128950","name":"Davis Mountains  SP (FWTX 23)","latitude":30.5962706,"longitude":-103.9347249,"countryCode":"US","countryName":"United States","subnational1Name":"Texas","subnational1Code":"US-TX","subnational2Code":"US-TX-243","subnational2Name":"Jeff Davis","isHotspot":true,"lat":30.5962706,"lng":-103.9347249,"locName":"Davis Mountains  SP (FWTX 23)","hierarchicalName":"Davis Mountains  SP (FWTX 23), Jeff Davis, Texas, US","locID":"L128950"}},{"locId":"L23804454","subId":"S134861448","numSpecies":1,"obsDt":"24 Apr 2023","obsTime":"10:29","subID":"S134861448","loc":{"locId":"L23804454","name":"42880-42881 Texas 118, Fort Davis, Texas, US (30.66, -104.025)","latitude":30.6600847,"longitude":-104.0246498,"countryCode":"US","countryName":"United States","subnational1Name":"Texas","subnational1Code":"US-TX","subnational2Code":"US-TX-243","subnational2Name":"Jeff Davis","isHotspot":false,"lat":30.6600847,"lng":-104.0246498,"locName":"42880-42881 Texas 118, Fort Davis, Texas, US (30.66, -104.025)","hierarchicalName":"42880-42881 Texas 118, Fort Davis, Texas, US (30.66, -104.025), Jeff Davis, Texas, US","locID":"L23804454"}},{"locId":"L129020","subId":"S134861358","numSpecies":32,"obsDt":"24 Apr 2023","obsTime":"07:26","subID":"S134861358","loc":{"locId":"L129020","name":"Lawrence E. Wood Picnic Area & Madera Canyon Trail","latitude":30.7063007,"longitude":-104.1054001,"countryCode":"US","countryName":"United States","subnational1Name":"Texas","subnational1Code":"US-TX","subnational2Code":"US-TX-243","subnational2Name":"Jeff Davis","isHotspot":true,"lat":30.7063007,"lng":-104.1054001,"locName":"Lawrence E. Wood Picnic Area & Madera Canyon Trail","hierarchicalName":"Lawrence E. Wood Picnic Area & Madera Canyon Trail, Jeff Davis, Texas, US","locID":"L129020"}},{"locId":"L129020","subId":"S134883604","numSpecies":2,"obsDt":"23 Apr 2023","obsTime":"20:57","subID":"S134883604","loc":{"locId":"L129020","name":"Lawrence E. Wood Picnic Area & Madera Canyon Trail","latitude":30.7063007,"longitude":-104.1054001,"countryCode":"US","countryName":"United States","subnational1Name":"Texas","subnational1Code":"US-TX","subnational2Code":"US-TX-243","subnational2Name":"Jeff Davis","isHotspot":true,"lat":30.7063007,"lng":-104.1054001,"locName":"Lawrence E. Wood Picnic Area & Madera Canyon Trail","hierarchicalName":"Lawrence E. Wood Picnic Area & Madera Canyon Trail, Jeff Davis, Texas, US","locID":"L129020"}},{"locId":"L23795202","subId":"S134811628","numSpecies":1,"obsDt":"23 Apr 2023","obsTime":"20:19","subID":"S134811628","loc":{"locId":"L23795202","name":"432 Musquiz Drive, Fort Davis, Texas, US (30.58, -103.882)","latitude":30.5795882,"longitude":-103.8824302,"countryCode":"US","countryName":"United States","subnational1Name":"Texas","subnational1Code":"US-TX","subnational2Code":"US-TX-243","subnational2Name":"Jeff Davis","isHotspot":false,"lat":30.5795882,"lng":-103.8824302,"locName":"432 Musquiz Drive, Fort Davis, Texas, US (30.58, -103.882)","hierarchicalName":"432 Musquiz Drive, Fort Davis, Texas, US (30.58, -103.882), Jeff Davis, Texas, US","locID":"L23795202"}},{"locId":"L15277399","subId":"S134811402","numSpecies":1,"obsDt":"23 Apr 2023","obsTime":"20:14","subID":"S134811402","loc":{"locId":"L15277399","name":"TX118 Windmill Pond S of Ft Davis at Powell Plant Farms rd","latitude":30.5578087,"longitude":-103.8675252,"countryCode":"US","countryName":"United States","subnational1Name":"Texas","subnational1Code":"US-TX","subnational2Code":"US-TX-243","subnational2Name":"Jeff Davis","isHotspot":true,"lat":30.5578087,"lng":-103.8675252,"locName":"TX118 Windmill Pond S of Ft Davis at Powell Plant Farms rd","hierarchicalName":"TX118 Windmill Pond S of Ft Davis at Powell Plant Farms rd, Jeff Davis, Texas, US","locID":"L15277399"}},{"locId":"L3867376","subId":"S134810883","numSpecies":18,"obsDt":"23 Apr 2023","obsTime":"19:27","subID":"S134810883","loc":{"locId":"L3867376","name":"TX118 rest area, 7 mi. SE of Fort Davis","latitude":30.5276479,"longitude":-103.8233033,"countryCode":"US","countryName":"United States","subnational1Name":"Texas","subnational1Code":"US-TX","subnational2Code":"US-TX-243","subnational2Name":"Jeff Davis","isHotspot":true,"lat":30.5276479,"lng":-103.8233033,"locName":"TX118 rest area, 7 mi. SE of Fort Davis","hierarchicalName":"TX118 rest area, 7 mi. SE of Fort Davis, Jeff Davis, Texas, US","locID":"L3867376"}},{"locId":"L1025550","subId":"S134806485","numSpecies":20,"obsDt":"23 Apr 2023","obsTime":"18:50","subID":"S134806485","loc":{"locId":"L1025550","name":"TX118 at Musquiz Creek","latitude":30.53569,"longitude":-103.80343,"countryCode":"US","countryName":"United States","subnational1Name":"Texas","subnational1Code":"US-TX","subnational2Code":"US-TX-243","subnational2Name":"Jeff Davis","isHotspot":true,"lat":30.53569,"lng":-103.80343,"locName":"TX118 at Musquiz Creek","hierarchicalName":"TX118 at Musquiz Creek, Jeff Davis, Texas, US","locID":"L1025550"}},{"locId":"L23794229","subId":"S134806556","numSpecies":3,"obsDt":"23 Apr 2023","obsTime":"18:01","subID":"S134806556","loc":{"locId":"L23794229","name":"US 90, Alpine, Texas, US (30.264, -103.416)","latitude":30.2643467,"longitude":-103.4159461,"countryCode":"US","countryName":"United States","subnational1Name":"Texas","subnational1Code":"US-TX","subnational2Code":"US-TX-043","subnational2Name":"Brewster","isHotspot":false,"lat":30.2643467,"lng":-103.4159461,"locName":"US 90, Alpine, Texas, US (30.264, -103.416)","hierarchicalName":"US 90, Alpine, Texas, US (30.264, -103.416), Brewster, Texas, US","locID":"L23794229"}},{"locId":"L113466","subId":"S134791246","numSpecies":1,"obsDt":"23 Apr 2023","obsTime":"17:11","subID":"S134791246","loc":{"locId":"L113466","name":"Pecos","latitude":30.7192,"longitude":-102.6724,"countryCode":"US","countryName":"United States","subnational1Name":"Texas","subnational1Code":"US-TX","subnational2Code":"US-TX-371","subnational2Name":"Pecos","isHotspot":false,"lat":30.7192,"lng":-102.6724,"locName":"Pecos","hierarchicalName":"Pecos, Pecos, Texas, US","locID":"L113466"}},{"locId":"L113502","subId":"S134791303","numSpecies":7,"obsDt":"23 Apr 2023","obsTime":"16:19","subID":"S134791303","loc":{"locId":"L113502","name":"Terrell","latitude":30.22243,"longitude":-102.10984,"countryCode":"US","countryName":"United States","subnational1Name":"Texas","subnational1Code":"US-TX","subnational2Code":"US-TX-443","subnational2Name":"Terrell","isHotspot":false,"lat":30.22243,"lng":-102.10984,"locName":"Terrell","hierarchicalName":"Terrell, Terrell, Texas, US","locID":"L113502"}},{"locId":"L113513","subId":"S134884770","numSpecies":13,"obsDt":"23 Apr 2023","obsTime":"15:04","subID":"S134884770","loc":{"locId":"L113513","name":"Val Verde","latitude":29.76526,"longitude":-101.22531,"countryCode":"US","countryName":"United States","subnational1Name":"Texas","subnational1Code":"US-TX","subnational2Code":"US-TX-465","subnational2Name":"Val Verde","isHotspot":false,"lat":29.76526,"lng":-101.22531,"locName":"Val Verde","hierarchicalName":"Val Verde, Val Verde, Texas, US","locID":"L113513"}},{"locId":"L23786589","subId":"S134767932","numSpecies":22,"obsDt":"23 Apr 2023","obsTime":"13:58","subID":"S134767932","loc":{"locId":"L23786589","name":"12384 Ranch Road 674, Brackettville, Texas, US (29.502, -100.397)","latitude":29.5017104,"longitude":-100.3973489,"countryCode":"US","countryName":"United States","subnational1Name":"Texas","subnational1Code":"US-TX","subnational2Code":"US-TX-271","subnational2Name":"Kinney","isHotspot":false,"lat":29.5017104,"lng":-100.3973489,"locName":"12384 Ranch Road 674, Brackettville, Texas, US (29.502, -100.397)","hierarchicalName":"12384 Ranch Road 674, Brackettville, Texas, US (29.502, -100.397), Kinney, Texas, US","locID":"L23786589"}},{"locId":"L23785056","subId":"S134760299","numSpecies":1,"obsDt":"23 Apr 2023","obsTime":"13:42","subID":"S134760299","loc":{"locId":"L23785056","name":"23 Apr 2023 13:43\n29.634, -100.433","latitude":29.6342934,"longitude":-100.4331383,"countryCode":"US","countryName":"United States","subnational1Name":"Texas","subnational1Code":"US-TX","subnational2Code":"US-TX-137","subnational2Name":"Edwards","isHotspot":false,"lat":29.6342934,"lng":-100.4331383,"locName":"23 Apr 2023 13:43\n29.634, -100.433","hierarchicalName":"23 Apr 2023 13:43\n29.634, -100.433, Edwards, Texas, US","locID":"L23785056"}},{"locId":"L23782387","subId":"S134747521","numSpecies":29,"obsDt":"23 Apr 2023","obsTime":"11:27","subID":"S134747521","loc":{"locId":"L23782387","name":"Kickapoo Caverns SP--Campground area","latitude":29.6116655,"longitude":-100.4529011,"countryCode":"US","countryName":"United States","subnational1Name":"Texas","subnational1Code":"US-TX","subnational2Code":"US-TX-271","subnational2Name":"Kinney","isHotspot":false,"lat":29.6116655,"lng":-100.4529011,"locName":"Kickapoo Caverns SP--Campground area","hierarchicalName":"Kickapoo Caverns SP--Campground area, Kinney, Texas, US","locID":"L23782387"}},{"locId":"L23782493","subId":"S134728324","numSpecies":36,"obsDt":"23 Apr 2023","obsTime":"07:28","subID":"S134728324","loc":{"locId":"L23782493","name":"Kickapoo Caverns SP--Vireo Vista trail","latitude":29.5998392,"longitude":-100.4617839,"countryCode":"US","countryName":"United States","subnational1Name":"Texas","subnational1Code":"US-TX","subnational2Code":"US-TX-271","subnational2Name":"Kinney","isHotspot":false,"lat":29.5998392,"lng":-100.4617839,"locName":"Kickapoo Caverns SP--Vireo Vista trail","hierarchicalName":"Kickapoo Caverns SP--Vireo Vista trail, Kinney, Texas, US","locID":"L23782493"}},{"locId":"L7017760","subId":"S134686736","numSpecies":5,"obsDt":"22 Apr 2023","obsTime":"19:50","subID":"S134686736","loc":{"locId":"L7017760","name":"Kickapoo Caverns SP--Stuart Bat Cave","latitude":29.6327545,"longitude":-100.4387462,"countryCode":"US","countryName":"United States","subnational1Name":"Texas","subnational1Code":"US-TX","subnational2Code":"US-TX-137","subnational2Name":"Edwards","isHotspot":true,"lat":29.6327545,"lng":-100.4387462,"locName":"Kickapoo Caverns SP--Stuart Bat Cave","hierarchicalName":"Kickapoo Caverns SP--Stuart Bat Cave, Edwards, Texas, US","locID":"L7017760"}},{"locId":"L23766178","subId":"S134663603","numSpecies":19,"obsDt":"22 Apr 2023","obsTime":"18:12","subID":"S134663603","loc":{"locId":"L23766178","name":"Ranch Road 334, Uvalde, Texas, US (29.42, -100.066)","latitude":29.4200384,"longitude":-100.0662981,"countryCode":"US","countryName":"United States","subnational1Name":"Texas","subnational1Code":"US-TX","subnational2Code":"US-TX-463","subnational2Name":"Uvalde","isHotspot":false,"lat":29.4200384,"lng":-100.0662981,"locName":"Ranch Road 334, Uvalde, Texas, US (29.42, -100.066)","hierarchicalName":"Ranch Road 334, Uvalde, Texas, US (29.42, -100.066), Uvalde, Texas, US","locID":"L23766178"}},{"locId":"L113534","subId":"S134639600","numSpecies":10,"obsDt":"22 Apr 2023","obsTime":"15:18","subID":"S134639600","loc":{"locId":"L113534","name":"Zavala","latitude":28.8655,"longitude":-99.76238,"countryCode":"US","countryName":"United States","subnational1Name":"Texas","subnational1Code":"US-TX","subnational2Code":"US-TX-507","subnational2Name":"Zavala","isHotspot":false,"lat":28.8655,"lng":-99.76238,"locName":"Zavala","hierarchicalName":"Zavala, Zavala, Texas, US","locID":"L113534"}},{"locId":"L113344","subId":"S134635170","numSpecies":7,"obsDt":"22 Apr 2023","obsTime":"15:06","subID":"S134635170","loc":{"locId":"L113344","name":"Dimmit","latitude":28.42087,"longitude":-99.75275,"countryCode":"US","countryName":"United States","subnational1Name":"Texas","subnational1Code":"US-TX","subnational2Code":"US-TX-127","subnational2Name":"Dimmit","isHotspot":false,"lat":28.42087,"lng":-99.75275,"locName":"Dimmit","hierarchicalName":"Dimmit, Dimmit, Texas, US","locID":"L113344"}},{"locId":"L113520","subId":"S134633530","numSpecies":10,"obsDt":"22 Apr 2023","obsTime":"11:50","subID":"S134633530","loc":{"locId":"L113520","name":"Webb","latitude":27.73705,"longitude":-99.51073,"countryCode":"US","countryName":"United States","subnational1Name":"Texas","subnational1Code":"US-TX","subnational2Code":"US-TX-479","subnational2Name":"Webb","isHotspot":false,"lat":27.73705,"lng":-99.51073,"locName":"Webb","hierarchicalName":"Webb, Webb, Texas, US","locID":"L113520"}},{"locId":"L113533","subId":"S134604947","numSpecies":23,"obsDt":"22 Apr 2023","obsTime":"10:54","subID":"S134604947","loc":{"locId":"L113533","name":"Zapata","latitude":26.9443,"longitude":-99.21198,"countryCode":"US","countryName":"United States","subnational1Name":"Texas","subnational1Code":"US-TX","subnational2Code":"US-TX-505","subnational2Name":"Zapata","isHotspot":false,"lat":26.9443,"lng":-99.21198,"locName":"Zapata","hierarchicalName":"Zapata, Zapata, Texas, US","locID":"L113533"}},{"locId":"L3830415","subId":"S134593422","numSpecies":21,"obsDt":"22 Apr 2023","obsTime":"10:01","subID":"S134593422","loc":{"locId":"L3830415","name":"Falcon State Park--Butterfly Garden (Starr Co.)","latitude":26.5844785,"longitude":-99.1493234,"countryCode":"US","countryName":"United States","subnational1Name":"Texas","subnational1Code":"US-TX","subnational2Code":"US-TX-427","subnational2Name":"Starr","isHotspot":true,"lat":26.5844785,"lng":-99.1493234,"locName":"Falcon State Park--Butterfly Garden (Starr Co.)","hierarchicalName":"Falcon State Park--Butterfly Garden (Starr Co.), Starr, Texas, US","locID":"L3830415"}},{"locId":"L22774179","subId":"S134587488","numSpecies":36,"obsDt":"22 Apr 2023","obsTime":"08:52","subID":"S134587488","loc":{"locId":"L22774179","name":"Falcon SP—Lantana Loop (Starr Co.)","latitude":26.5805597,"longitude":-99.1502089,"countryCode":"US","countryName":"United States","subnational1Name":"Texas","subnational1Code":"US-TX","subnational2Code":"US-TX-427","subnational2Name":"Starr","isHotspot":true,"lat":26.5805597,"lng":-99.1502089,"locName":"Falcon SP—Lantana Loop (Starr Co.)","hierarchicalName":"Falcon SP—Lantana Loop (Starr Co.), Starr, Texas, US","locID":"L22774179"}},{"locId":"L129075","subId":"S134574245","numSpecies":63,"obsDt":"22 Apr 2023","obsTime":"06:37","subID":"S134574245","loc":{"locId":"L129075","name":"Salineño Wildlife Preserve (LTC 080)","latitude":26.5148584,"longitude":-99.1162062,"countryCode":"US","countryName":"United States","subnational1Name":"Texas","subnational1Code":"US-TX","subnational2Code":"US-TX-427","subnational2Name":"Starr","isHotspot":true,"lat":26.5148584,"lng":-99.1162062,"locName":"Salineño Wildlife Preserve (LTC 080)","hierarchicalName":"Salineño Wildlife Preserve (LTC 080), Starr, Texas, US","locID":"L129075"}},{"locId":"L129075","subId":"S134573253","numSpecies":7,"obsDt":"21 Apr 2023","obsTime":"19:20","subID":"S134573253","loc":{"locId":"L129075","name":"Salineño Wildlife Preserve (LTC 080)","latitude":26.5148584,"longitude":-99.1162062,"countryCode":"US","countryName":"United States","subnational1Name":"Texas","subnational1Code":"US-TX","subnational2Code":"US-TX-427","subnational2Name":"Starr","isHotspot":true,"lat":26.5148584,"lng":-99.1162062,"locName":"Salineño Wildlife Preserve (LTC 080)","hierarchicalName":"Salineño Wildlife Preserve (LTC 080), Starr, Texas, US","locID":"L129075"}},{"locId":"L129075","subId":"S134573318","numSpecies":34,"obsDt":"21 Apr 2023","obsTime":"17:57","subID":"S134573318","loc":{"locId":"L129075","name":"Salineño Wildlife Preserve (LTC 080)","latitude":26.5148584,"longitude":-99.1162062,"countryCode":"US","countryName":"United States","subnational1Name":"Texas","subnational1Code":"US-TX","subnational2Code":"US-TX-427","subnational2Name":"Starr","isHotspot":true,"lat":26.5148584,"lng":-99.1162062,"locName":"Salineño Wildlife Preserve (LTC 080)","hierarchicalName":"Salineño Wildlife Preserve (LTC 080), Starr, Texas, US","locID":"L129075"}},{"locId":"L129075","subId":"S134521605","numSpecies":22,"obsDt":"21 Apr 2023","obsTime":"16:53","subID":"S134521605","loc":{"locId":"L129075","name":"Salineño Wildlife Preserve (LTC 080)","latitude":26.5148584,"longitude":-99.1162062,"countryCode":"US","countryName":"United States","subnational1Name":"Texas","subnational1Code":"US-TX","subnational2Code":"US-TX-427","subnational2Name":"Starr","isHotspot":true,"lat":26.5148584,"lng":-99.1162062,"locName":"Salineño Wildlife Preserve (LTC 080)","hierarchicalName":"Salineño Wildlife Preserve (LTC 080), Starr, Texas, US","locID":"L129075"}},{"locId":"L23735860","subId":"S134513421","numSpecies":8,"obsDt":"21 Apr 2023","obsTime":"16:16","subID":"S134513421","loc":{"locId":"L23735860","name":"73-1 Old 83 Road, Roma, Texas, US (26.496, -99.074)","latitude":26.4964321,"longitude":-99.07441,"countryCode":"US","countryName":"United States","subnational1Name":"Texas","subnational1Code":"US-TX","subnational2Code":"US-TX-427","subnational2Name":"Starr","isHotspot":false,"lat":26.4964321,"lng":-99.07441,"locName":"73-1 Old 83 Road, Roma, Texas, US (26.496, -99.074)","hierarchicalName":"73-1 Old 83 Road, Roma, Texas, US (26.496, -99.074), Starr, Texas, US","locID":"L23735860"}},{"locId":"L23730270","subId":"S134485199","numSpecies":1,"obsDt":"21 Apr 2023","obsTime":"12:18","subID":"S134485199","loc":{"locId":"L23730270","name":"Park Road 43, Mission, Texas, US (26.174, -98.381)","latitude":26.1740315,"longitude":-98.3811749,"countryCode":"US","countryName":"United States","subnational1Name":"Texas","subnational1Code":"US-TX","subnational2Code":"US-TX-215","subnational2Name":"Hidalgo","isHotspot":false,"lat":26.1740315,"lng":-98.3811749,"locName":"Park Road 43, Mission, Texas, US (26.174, -98.381)","hierarchicalName":"Park Road 43, Mission, Texas, US (26.174, -98.381), Hidalgo, Texas, US","locID":"L23730270"}},{"locId":"L613081","subId":"S134493037","numSpecies":47,"obsDt":"21 Apr 2023","obsTime":"09:33","subID":"S134493037","loc":{"locId":"L613081","name":"Bentsen-Rio Grande Val. SP--Hawk Watch","latitude":26.1690952,"longitude":-98.3805352,"countryCode":"US","countryName":"United States","subnational1Name":"Texas","subnational1Code":"US-TX","subnational2Code":"US-TX-215","subnational2Name":"Hidalgo","isHotspot":true,"lat":26.1690952,"lng":-98.3805352,"locName":"Bentsen-Rio Grande Val. SP--Hawk Watch","hierarchicalName":"Bentsen-Rio Grande Val. SP--Hawk Watch, Hidalgo, Texas, US","locID":"L613081"}},{"locId":"L128890","subId":"S134470495","numSpecies":34,"obsDt":"21 Apr 2023","obsTime":"08:46","subID":"S134470495","loc":{"locId":"L128890","name":"Bentsen-Rio Grande Val. SP WBC (Mission) (LTC 069)","latitude":26.1849709,"longitude":-98.3793885,"countryCode":"US","countryName":"United States","subnational1Name":"Texas","subnational1Code":"US-TX","subnational2Code":"US-TX-215","subnational2Name":"Hidalgo","isHotspot":true,"lat":26.1849709,"lng":-98.3793885,"locName":"Bentsen-Rio Grande Val. SP WBC (Mission) (LTC 069)","hierarchicalName":"Bentsen-Rio Grande Val. SP WBC (Mission) (LTC 069), Hidalgo, Texas, US","locID":"L128890"}},{"locId":"L23724194","subId":"S134450426","numSpecies":14,"obsDt":"21 Apr 2023","obsTime":"07:17","subID":"S134450426","loc":{"locId":"L23724194","name":"36499-36001 Brushline Road, Edinburg, Texas, US (26.545, -98.041)","latitude":26.544949,"longitude":-98.0405887,"countryCode":"US","countryName":"United States","subnational1Name":"Texas","subnational1Code":"US-TX","subnational2Code":"US-TX-215","subnational2Name":"Hidalgo","isHotspot":false,"lat":26.544949,"lng":-98.0405887,"locName":"36499-36001 Brushline Road, Edinburg, Texas, US (26.545, -98.041)","hierarchicalName":"36499-36001 Brushline Road, Edinburg, Texas, US (26.545, -98.041), Hidalgo, Texas, US","locID":"L23724194"}},{"locId":"L23724106","subId":"S134449752","numSpecies":8,"obsDt":"21 Apr 2023","obsTime":"07:10","subID":"S134449752","loc":{"locId":"L23724106","name":"35999-35667 Brushline Road, Edinburg, Texas, US (26.54, -98.042)","latitude":26.5398859,"longitude":-98.0415034,"countryCode":"US","countryName":"United States","subnational1Name":"Texas","subnational1Code":"US-TX","subnational2Code":"US-TX-215","subnational2Name":"Hidalgo","isHotspot":false,"lat":26.5398859,"lng":-98.0415034,"locName":"35999-35667 Brushline Road, Edinburg, Texas, US (26.54, -98.042)","hierarchicalName":"35999-35667 Brushline Road, Edinburg, Texas, US (26.54, -98.042), Hidalgo, Texas, US","locID":"L23724106"}},{"locId":"L23724044","subId":"S134449358","numSpecies":8,"obsDt":"21 Apr 2023","obsTime":"07:04","subID":"S134449358","loc":{"locId":"L23724044","name":"34796-35664 Brushline Road, Edinburg, Texas, US (26.532, -98.043)","latitude":26.5322059,"longitude":-98.0428553,"countryCode":"US","countryName":"United States","subnational1Name":"Texas","subnational1Code":"US-TX","subnational2Code":"US-TX-215","subnational2Name":"Hidalgo","isHotspot":false,"lat":26.5322059,"lng":-98.0428553,"locName":"34796-35664 Brushline Road, Edinburg, Texas, US (26.532, -98.043)","hierarchicalName":"34796-35664 Brushline Road, Edinburg, Texas, US (26.532, -98.043), Hidalgo, Texas, US","locID":"L23724044"}},{"locId":"L23723920","subId":"S134448537","numSpecies":11,"obsDt":"21 Apr 2023","obsTime":"06:55","subID":"S134448537","loc":{"locId":"L23723920","name":"33000-34224 Brushline Road, Edinburg, Texas, US (26.518, -98.046)","latitude":26.5175491,"longitude":-98.0455156,"countryCode":"US","countryName":"United States","subnational1Name":"Texas","subnational1Code":"US-TX","subnational2Code":"US-TX-215","subnational2Name":"Hidalgo","isHotspot":false,"lat":26.5175491,"lng":-98.0455156,"locName":"33000-34224 Brushline Road, Edinburg, Texas, US (26.518, -98.046)","hierarchicalName":"33000-34224 Brushline Road, Edinburg, Texas, US (26.518, -98.046), Hidalgo, Texas, US","locID":"L23723920"}},{"locId":"L23723828","subId":"S134447921","numSpecies":10,"obsDt":"21 Apr 2023","obsTime":"06:49","subID":"S134447921","loc":{"locId":"L23723828","name":"34642 Brushline Road, Edinburg, Texas, US (26.521, -98.045)","latitude":26.52135,"longitude":-98.0448725,"countryCode":"US","countryName":"United States","subnational1Name":"Texas","subnational1Code":"US-TX","subnational2Code":"US-TX-215","subnational2Name":"Hidalgo","isHotspot":false,"lat":26.52135,"lng":-98.0448725,"locName":"34642 Brushline Road, Edinburg, Texas, US (26.521, -98.045)","hierarchicalName":"34642 Brushline Road, Edinburg, Texas, US (26.521, -98.045), Hidalgo, Texas, US","locID":"L23723828"}},{"locId":"L23720750","subId":"S134450498","numSpecies":9,"obsDt":"21 Apr 2023","obsTime":"06:42","subID":"S134450498","loc":{"locId":"L23720750","name":"34541 Brushline Road, Edinburg, Texas, US (26.523, -98.044)","latitude":26.5230835,"longitude":-98.0444736,"countryCode":"US","countryName":"United States","subnational1Name":"Texas","subnational1Code":"US-TX","subnational2Code":"US-TX-215","subnational2Name":"Hidalgo","isHotspot":false,"lat":26.5230835,"lng":-98.0444736,"locName":"34541 Brushline Road, Edinburg, Texas, US (26.523, -98.044)","hierarchicalName":"34541 Brushline Road, Edinburg, Texas, US (26.523, -98.044), Hidalgo, Texas, US","locID":"L23720750"}},{"locId":"L276835","subId":"S134453060","numSpecies":25,"obsDt":"21 Apr 2023","obsTime":"06:41","subID":"S134453060","loc":{"locId":"L276835","name":"LRGV NWR--La Sal del Rey (LTC 005)","latitude":26.5332512,"longitude":-98.0584717,"countryCode":"US","countryName":"United States","subnational1Name":"Texas","subnational1Code":"US-TX","subnational2Code":"US-TX-215","subnational2Name":"Hidalgo","isHotspot":true,"lat":26.5332512,"lng":-98.0584717,"locName":"LRGV NWR--La Sal del Rey (LTC 005)","hierarchicalName":"LRGV NWR--La Sal del Rey (LTC 005), Hidalgo, Texas, US","locID":"L276835"}},{"locId":"L23720863","subId":"S134445349","numSpecies":1,"obsDt":"21 Apr 2023","obsTime":"06:16","subID":"S134445349","loc":{"locId":"L23720863","name":"34795-34227 Brushline Road, Edinburg, Texas, US (26.527, -98.044)","latitude":26.5268667,"longitude":-98.0439522,"countryCode":"US","countryName":"United States","subnational1Name":"Texas","subnational1Code":"US-TX","subnational2Code":"US-TX-215","subnational2Name":"Hidalgo","isHotspot":false,"lat":26.5268667,"lng":-98.0439522,"locName":"34795-34227 Brushline Road, Edinburg, Texas, US (26.527, -98.044)","hierarchicalName":"34795-34227 Brushline Road, Edinburg, Texas, US (26.527, -98.044), Hidalgo, Texas, US","locID":"L23720863"}},{"locId":"L23720863","subId":"S134441096","numSpecies":3,"obsDt":"21 Apr 2023","obsTime":"04:07","subID":"S134441096","loc":{"locId":"L23720863","name":"34795-34227 Brushline Road, Edinburg, Texas, US (26.527, -98.044)","latitude":26.5268667,"longitude":-98.0439522,"countryCode":"US","countryName":"United States","subnational1Name":"Texas","subnational1Code":"US-TX","subnational2Code":"US-TX-215","subnational2Name":"Hidalgo","isHotspot":false,"lat":26.5268667,"lng":-98.0439522,"locName":"34795-34227 Brushline Road, Edinburg, Texas, US (26.527, -98.044)","hierarchicalName":"34795-34227 Brushline Road, Edinburg, Texas, US (26.527, -98.044), Hidalgo, Texas, US","locID":"L23720863"}},{"locId":"L23720863","subId":"S134432842","numSpecies":3,"obsDt":"20 Apr 2023","obsTime":"21:54","subID":"S134432842","loc":{"locId":"L23720863","name":"34795-34227 Brushline Road, Edinburg, Texas, US (26.527, -98.044)","latitude":26.5268667,"longitude":-98.0439522,"countryCode":"US","countryName":"United States","subnational1Name":"Texas","subnational1Code":"US-TX","subnational2Code":"US-TX-215","subnational2Name":"Hidalgo","isHotspot":false,"lat":26.5268667,"lng":-98.0439522,"locName":"34795-34227 Brushline Road, Edinburg, Texas, US (26.527, -98.044)","hierarchicalName":"34795-34227 Brushline Road, Edinburg, Texas, US (26.527, -98.044), Hidalgo, Texas, US","locID":"L23720863"}},{"locId":"L23720750","subId":"S134432361","numSpecies":1,"obsDt":"20 Apr 2023","obsTime":"21:48","subID":"S134432361","loc":{"locId":"L23720750","name":"34541 Brushline Road, Edinburg, Texas, US (26.523, -98.044)","latitude":26.5230835,"longitude":-98.0444736,"countryCode":"US","countryName":"United States","subnational1Name":"Texas","subnational1Code":"US-TX","subnational2Code":"US-TX-215","subnational2Name":"Hidalgo","isHotspot":false,"lat":26.5230835,"lng":-98.0444736,"locName":"34541 Brushline Road, Edinburg, Texas, US (26.523, -98.044)","hierarchicalName":"34541 Brushline Road, Edinburg, Texas, US (26.523, -98.044), Hidalgo, Texas, US","locID":"L23720750"}},{"locId":"L23720642","subId":"S134432155","numSpecies":2,"obsDt":"20 Apr 2023","obsTime":"21:38","subID":"S134432155","loc":{"locId":"L23720642","name":"34795-34227 Brushline Road, Edinburg, Texas, US (26.519, -98.045)","latitude":26.5191692,"longitude":-98.045147,"countryCode":"US","countryName":"United States","subnational1Name":"Texas","subnational1Code":"US-TX","subnational2Code":"US-TX-215","subnational2Name":"Hidalgo","isHotspot":false,"lat":26.5191692,"lng":-98.045147,"locName":"34795-34227 Brushline Road, Edinburg, Texas, US (26.519, -98.045)","hierarchicalName":"34795-34227 Brushline Road, Edinburg, Texas, US (26.519, -98.045), Hidalgo, Texas, US","locID":"L23720642"}},{"locId":"L23720584","subId":"S134431646","numSpecies":1,"obsDt":"20 Apr 2023","obsTime":"21:32","subID":"S134431646","loc":{"locId":"L23720584","name":"33000-34224 Brushline Road, Edinburg, Texas, US (26.513, -98.046)","latitude":26.5134245,"longitude":-98.0462225,"countryCode":"US","countryName":"United States","subnational1Name":"Texas","subnational1Code":"US-TX","subnational2Code":"US-TX-215","subnational2Name":"Hidalgo","isHotspot":false,"lat":26.5134245,"lng":-98.0462225,"locName":"33000-34224 Brushline Road, Edinburg, Texas, US (26.513, -98.046)","hierarchicalName":"33000-34224 Brushline Road, Edinburg, Texas, US (26.513, -98.046), Hidalgo, Texas, US","locID":"L23720584"}},{"locId":"L23720528","subId":"S134431367","numSpecies":1,"obsDt":"20 Apr 2023","obsTime":"21:26","subID":"S134431367","loc":{"locId":"L23720528","name":"33000-34224 Brushline Road, Edinburg, Texas, US (26.508, -98.047)","latitude":26.507762,"longitude":-98.0472174,"countryCode":"US","countryName":"United States","subnational1Name":"Texas","subnational1Code":"US-TX","subnational2Code":"US-TX-215","subnational2Name":"Hidalgo","isHotspot":false,"lat":26.507762,"lng":-98.0472174,"locName":"33000-34224 Brushline Road, Edinburg, Texas, US (26.508, -98.047)","hierarchicalName":"33000-34224 Brushline Road, Edinburg, Texas, US (26.508, -98.047), Hidalgo, Texas, US","locID":"L23720528"}},{"locId":"L23720440","subId":"S134431096","numSpecies":2,"obsDt":"20 Apr 2023","obsTime":"21:20","subID":"S134431096","loc":{"locId":"L23720440","name":"33000-34224 Brushline Road, Edinburg, Texas, US (26.503, -98.048)","latitude":26.5027151,"longitude":-98.0481007,"countryCode":"US","countryName":"United States","subnational1Name":"Texas","subnational1Code":"US-TX","subnational2Code":"US-TX-215","subnational2Name":"Hidalgo","isHotspot":false,"lat":26.5027151,"lng":-98.0481007,"locName":"33000-34224 Brushline Road, Edinburg, Texas, US (26.503, -98.048)","hierarchicalName":"33000-34224 Brushline Road, Edinburg, Texas, US (26.503, -98.048), Hidalgo, Texas, US","locID":"L23720440"}},{"locId":"L23720440","subId":"S134430827","numSpecies":0,"obsDt":"20 Apr 2023","obsTime":"21:16","subID":"S134430827","loc":{"locId":"L23720440","name":"33000-34224 Brushline Road, Edinburg, Texas, US (26.503, -98.048)","latitude":26.5027151,"longitude":-98.0481007,"countryCode":"US","countryName":"United States","subnational1Name":"Texas","subnational1Code":"US-TX","subnational2Code":"US-TX-215","subnational2Name":"Hidalgo","isHotspot":false,"lat":26.5027151,"lng":-98.0481007,"locName":"33000-34224 Brushline Road, Edinburg, Texas, US (26.503, -98.048)","hierarchicalName":"33000-34224 Brushline Road, Edinburg, Texas, US (26.503, -98.048), Hidalgo, Texas, US","locID":"L23720440"}},{"locId":"L1331912","subId":"S134423389","numSpecies":2,"obsDt":"20 Apr 2023","obsTime":"19:25","subID":"S134423389","loc":{"locId":"L1331912","name":"Santa Ana NWR--Entry and Parking lot","latitude":26.0826692,"longitude":-98.1356089,"countryCode":"US","countryName":"United States","subnational1Name":"Texas","subnational1Code":"US-TX","subnational2Code":"US-TX-215","subnational2Name":"Hidalgo","isHotspot":true,"lat":26.0826692,"lng":-98.1356089,"locName":"Santa Ana NWR--Entry and Parking lot","hierarchicalName":"Santa Ana NWR--Entry and Parking lot, Hidalgo, Texas, US","locID":"L1331912"}},{"locId":"L1331912","subId":"S134427880","numSpecies":4,"obsDt":"20 Apr 2023","obsTime":"19:15","subID":"S134427880","loc":{"locId":"L1331912","name":"Santa Ana NWR--Entry and Parking lot","latitude":26.0826692,"longitude":-98.1356089,"countryCode":"US","countryName":"United States","subnational1Name":"Texas","subnational1Code":"US-TX","subnational2Code":"US-TX-215","subnational2Name":"Hidalgo","isHotspot":true,"lat":26.0826692,"lng":-98.1356089,"locName":"Santa Ana NWR--Entry and Parking lot","hierarchicalName":"Santa Ana NWR--Entry and Parking lot, Hidalgo, Texas, US","locID":"L1331912"}},{"locId":"L129085","subId":"S134427777","numSpecies":64,"obsDt":"20 Apr 2023","obsTime":"16:43","subID":"S134427777","loc":{"locId":"L129085","name":"Santa Ana NWR (LTC 059)","latitude":26.0813003,"longitude":-98.1351399,"countryCode":"US","countryName":"United States","subnational1Name":"Texas","subnational1Code":"US-TX","subnational2Code":"US-TX-215","subnational2Name":"Hidalgo","isHotspot":true,"lat":26.0813003,"lng":-98.1351399,"locName":"Santa Ana NWR (LTC 059)","hierarchicalName":"Santa Ana NWR (LTC 059), Hidalgo, Texas, US","locID":"L129085"}},{"locId":"L129085","subId":"S134405492","numSpecies":22,"obsDt":"20 Apr 2023","obsTime":"15:30","subID":"S134405492","loc":{"locId":"L129085","name":"Santa Ana NWR (LTC 059)","latitude":26.0813003,"longitude":-98.1351399,"countryCode":"US","countryName":"United States","subnational1Name":"Texas","subnational1Code":"US-TX","subnational2Code":"US-TX-215","subnational2Name":"Hidalgo","isHotspot":true,"lat":26.0813003,"lng":-98.1351399,"locName":"Santa Ana NWR (LTC 059)","hierarchicalName":"Santa Ana NWR (LTC 059), Hidalgo, Texas, US","locID":"L129085"}},{"locId":"L23713853","subId":"S134393933","numSpecies":20,"obsDt":"20 Apr 2023","obsTime":"13:59","subID":"S134393933","loc":{"locId":"L23713853","name":"Bentsen State Park Road 43, Mission, Texas, US (26.178, -98.388)","latitude":26.1776438,"longitude":-98.3884359,"countryCode":"US","countryName":"United States","subnational1Name":"Texas","subnational1Code":"US-TX","subnational2Code":"US-TX-215","subnational2Name":"Hidalgo","isHotspot":false,"lat":26.1776438,"lng":-98.3884359,"locName":"Bentsen State Park Road 43, Mission, Texas, US (26.178, -98.388)","hierarchicalName":"Bentsen State Park Road 43, Mission, Texas, US (26.178, -98.388), Hidalgo, Texas, US","locID":"L23713853"}},{"locId":"L613081","subId":"S134380445","numSpecies":54,"obsDt":"20 Apr 2023","obsTime":"09:00","subID":"S134380445","loc":{"locId":"L613081","name":"Bentsen-Rio Grande Val. SP--Hawk Watch","latitude":26.1690952,"longitude":-98.3805352,"countryCode":"US","countryName":"United States","subnational1Name":"Texas","subnational1Code":"US-TX","subnational2Code":"US-TX-215","subnational2Name":"Hidalgo","isHotspot":true,"lat":26.1690952,"lng":-98.3805352,"locName":"Bentsen-Rio Grande Val. SP--Hawk Watch","hierarchicalName":"Bentsen-Rio Grande Val. SP--Hawk Watch, Hidalgo, Texas, US","locID":"L613081"}},{"locId":"L23708812","subId":"S134366518","numSpecies":27,"obsDt":"20 Apr 2023","obsTime":"08:35","subID":"S134366518","loc":{"locId":"L23708812","name":"Bentsen State Park Road 43, Mission, Texas, US (26.177, -98.39)","latitude":26.1768659,"longitude":-98.3901177,"countryCode":"US","countryName":"United States","subnational1Name":"Texas","subnational1Code":"US-TX","subnational2Code":"US-TX-215","subnational2Name":"Hidalgo","isHotspot":false,"lat":26.1768659,"lng":-98.3901177,"locName":"Bentsen State Park Road 43, Mission, Texas, US (26.177, -98.39)","hierarchicalName":"Bentsen State Park Road 43, Mission, Texas, US (26.177, -98.39), Hidalgo, Texas, US","locID":"L23708812"}},{"locId":"L22856374","subId":"S134367495","numSpecies":32,"obsDt":"20 Apr 2023","obsTime":"07:08","subID":"S134367495","loc":{"locId":"L22856374","name":"Bentsen-Rio Grande Valley State Park","latitude":26.1854996,"longitude":-98.379457,"countryCode":"US","countryName":"United States","subnational1Name":"Texas","subnational1Code":"US-TX","subnational2Code":"US-TX-215","subnational2Name":"Hidalgo","isHotspot":true,"lat":26.1854996,"lng":-98.379457,"locName":"Bentsen-Rio Grande Valley State Park","hierarchicalName":"Bentsen-Rio Grande Valley State Park, Hidalgo, Texas, US","locID":"L22856374"}},{"locId":"L23705916","subId":"S134348547","numSpecies":9,"obsDt":"20 Apr 2023","obsTime":"06:28","subID":"S134348547","loc":{"locId":"L23705916","name":"Bentsen State Park Road 43, Mission, Texas, US (26.185, -98.379)","latitude":26.1847365,"longitude":-98.3794618,"countryCode":"US","countryName":"United States","subnational1Name":"Texas","subnational1Code":"US-TX","subnational2Code":"US-TX-215","subnational2Name":"Hidalgo","isHotspot":false,"lat":26.1847365,"lng":-98.3794618,"locName":"Bentsen State Park Road 43, Mission, Texas, US (26.185, -98.379)","hierarchicalName":"Bentsen State Park Road 43, Mission, Texas, US (26.185, -98.379), Hidalgo, Texas, US","locID":"L23705916"}},{"locId":"L1918641","subId":"S134328385","numSpecies":26,"obsDt":"19 Apr 2023","obsTime":"18:54","subID":"S134328385","loc":{"locId":"L1918641","name":"Oliveira Park, Brownsville","latitude":25.9374284,"longitude":-97.52159,"countryCode":"US","countryName":"United States","subnational1Name":"Texas","subnational1Code":"US-TX","subnational2Code":"US-TX-061","subnational2Name":"Cameron","isHotspot":true,"lat":25.9374284,"lng":-97.52159,"locName":"Oliveira Park, Brownsville","hierarchicalName":"Oliveira Park, Brownsville, Cameron, Texas, US","locID":"L1918641"}},{"locId":"L3471518","subId":"S134319045","numSpecies":30,"obsDt":"19 Apr 2023","obsTime":"16:35","subID":"S134319045","loc":{"locId":"L3471518","name":"LRGV NWR--La Sal del Rey--Brush Line rd.","latitude":26.5127827,"longitude":-98.0463192,"countryCode":"US","countryName":"United States","subnational1Name":"Texas","subnational1Code":"US-TX","subnational2Code":"US-TX-215","subnational2Name":"Hidalgo","isHotspot":true,"lat":26.5127827,"lng":-98.0463192,"locName":"LRGV NWR--La Sal del Rey--Brush Line rd.","hierarchicalName":"LRGV NWR--La Sal del Rey--Brush Line rd., Hidalgo, Texas, US","locID":"L3471518"}},{"locId":"L23694858","subId":"S134287647","numSpecies":34,"obsDt":"19 Apr 2023","obsTime":"11:14","subID":"S134287647","loc":{"locId":"L23694858","name":"13662 El Sauz Ranch Road, Raymondville, Texas, US (26.49, -97.568)","latitude":26.4899034,"longitude":-97.5682898,"countryCode":"US","countryName":"United States","subnational1Name":"Texas","subnational1Code":"US-TX","subnational2Code":"US-TX-489","subnational2Name":"Willacy","isHotspot":false,"lat":26.4899034,"lng":-97.5682898,"locName":"13662 El Sauz Ranch Road, Raymondville, Texas, US (26.49, -97.568)","hierarchicalName":"13662 El Sauz Ranch Road, Raymondville, Texas, US (26.49, -97.568), Willacy, Texas, US","locID":"L23694858"}},{"locId":"L2266657","subId":"S134272927","numSpecies":59,"obsDt":"19 Apr 2023","obsTime":"08:26","subID":"S134272927","loc":{"locId":"L2266657","name":"Laguna Atascosa NWR--Lakeside Drive","latitude":26.2335321,"longitude":-97.3533726,"countryCode":"US","countryName":"United States","subnational1Name":"Texas","subnational1Code":"US-TX","subnational2Code":"US-TX-061","subnational2Name":"Cameron","isHotspot":true,"lat":26.2335321,"lng":-97.3533726,"locName":"Laguna Atascosa NWR--Lakeside Drive","hierarchicalName":"Laguna Atascosa NWR--Lakeside Drive, Cameron, Texas, US","locID":"L2266657"}},{"locId":"L288849","subId":"S134261655","numSpecies":25,"obsDt":"19 Apr 2023","obsTime":"06:48","subID":"S134261655","loc":{"locId":"L288849","name":"Laguna Atascosa NWR--HQ and Kiskadee Trail","latitude":26.2285086,"longitude":-97.3475226,"countryCode":"US","countryName":"United States","subnational1Name":"Texas","subnational1Code":"US-TX","subnational2Code":"US-TX-061","subnational2Name":"Cameron","isHotspot":true,"lat":26.2285086,"lng":-97.3475226,"locName":"Laguna Atascosa NWR--HQ and Kiskadee Trail","hierarchicalName":"Laguna Atascosa NWR--HQ and Kiskadee Trail, Cameron, Texas, US","locID":"L288849"}},{"locId":"L288849","subId":"S134248440","numSpecies":2,"obsDt":"19 Apr 2023","obsTime":"03:26","subID":"S134248440","loc":{"locId":"L288849","name":"Laguna Atascosa NWR--HQ and Kiskadee Trail","latitude":26.2285086,"longitude":-97.3475226,"countryCode":"US","countryName":"United States","subnational1Name":"Texas","subnational1Code":"US-TX","subnational2Code":"US-TX-061","subnational2Name":"Cameron","isHotspot":true,"lat":26.2285086,"lng":-97.3475226,"locName":"Laguna Atascosa NWR--HQ and Kiskadee Trail","hierarchicalName":"Laguna Atascosa NWR--HQ and Kiskadee Trail, Cameron, Texas, US","locID":"L288849"}},{"locId":"L288849","subId":"S134246062","numSpecies":1,"obsDt":"19 Apr 2023","obsTime":"01:33","subID":"S134246062","loc":{"locId":"L288849","name":"Laguna Atascosa NWR--HQ and Kiskadee Trail","latitude":26.2285086,"longitude":-97.3475226,"countryCode":"US","countryName":"United States","subnational1Name":"Texas","subnational1Code":"US-TX","subnational2Code":"US-TX-061","subnational2Name":"Cameron","isHotspot":true,"lat":26.2285086,"lng":-97.3475226,"locName":"Laguna Atascosa NWR--HQ and Kiskadee Trail","hierarchicalName":"Laguna Atascosa NWR--HQ and Kiskadee Trail, Cameron, Texas, US","locID":"L288849"}},{"locId":"L288849","subId":"S134246019","numSpecies":0,"obsDt":"18 Apr 2023","obsTime":"21:04","subID":"S134246019","loc":{"locId":"L288849","name":"Laguna Atascosa NWR--HQ and Kiskadee Trail","latitude":26.2285086,"longitude":-97.3475226,"countryCode":"US","countryName":"United States","subnational1Name":"Texas","subnational1Code":"US-TX","subnational2Code":"US-TX-061","subnational2Name":"Cameron","isHotspot":true,"lat":26.2285086,"lng":-97.3475226,"locName":"Laguna Atascosa NWR--HQ and Kiskadee Trail","hierarchicalName":"Laguna Atascosa NWR--HQ and Kiskadee Trail, Cameron, Texas, US","locID":"L288849"}},{"locId":"L770565","subId":"S134233310","numSpecies":28,"obsDt":"18 Apr 2023","obsTime":"19:05","subID":"S134233310","loc":{"locId":"L770565","name":"South Padre Is.--Birding and Nature Center","latitude":26.1374859,"longitude":-97.1735573,"countryCode":"US","countryName":"United States","subnational1Name":"Texas","subnational1Code":"US-TX","subnational2Code":"US-TX-061","subnational2Name":"Cameron","isHotspot":true,"lat":26.1374859,"lng":-97.1735573,"locName":"South Padre Is.--Birding and Nature Center","hierarchicalName":"South Padre Is.--Birding and Nature Center, Cameron, Texas, US","locID":"L770565"}},{"locId":"L283726","subId":"S134233287","numSpecies":65,"obsDt":"18 Apr 2023","obsTime":"17:13","subID":"S134233287","loc":{"locId":"L283726","name":"South Padre Is.--WBC/Conv. Center/Laguna Madre Trail (LTC 035)","latitude":26.1400912,"longitude":-97.1748233,"countryCode":"US","countryName":"United States","subnational1Name":"Texas","subnational1Code":"US-TX","subnational2Code":"US-TX-061","subnational2Name":"Cameron","isHotspot":true,"lat":26.1400912,"lng":-97.1748233,"locName":"South Padre Is.--WBC/Conv. Center/Laguna Madre Trail (LTC 035)","hierarchicalName":"South Padre Is.--WBC/Conv. Center/Laguna Madre Trail (LTC 035), Cameron, Texas, US","locID":"L283726"}},{"locId":"L3322724","subId":"S134216922","numSpecies":15,"obsDt":"18 Apr 2023","obsTime":"16:12","subID":"S134216922","loc":{"locId":"L3322724","name":"Cameron Co.--TX100--Aplomado Viewing Area","latitude":26.0913939,"longitude":-97.3272438,"countryCode":"US","countryName":"United States","subnational1Name":"Texas","subnational1Code":"US-TX","subnational2Code":"US-TX-061","subnational2Name":"Cameron","isHotspot":true,"lat":26.0913939,"lng":-97.3272438,"locName":"Cameron Co.--TX100--Aplomado Viewing Area","hierarchicalName":"Cameron Co.--TX100--Aplomado Viewing Area, Cameron, Texas, US","locID":"L3322724"}},{"locId":"L2207293","subId":"S134206601","numSpecies":4,"obsDt":"18 Apr 2023","obsTime":"14:41","subID":"S134206601","loc":{"locId":"L2207293","name":"Old City Cemetery, Brownsville","latitude":25.9096192,"longitude":-97.500701,"countryCode":"US","countryName":"United States","subnational1Name":"Texas","subnational1Code":"US-TX","subnational2Code":"US-TX-061","subnational2Name":"Cameron","isHotspot":true,"lat":25.9096192,"lng":-97.500701,"locName":"Old City Cemetery, Brownsville","hierarchicalName":"Old City Cemetery, Brownsville, Cameron, Texas, US","locID":"L2207293"}},{"locId":"L1918641","subId":"S134177521","numSpecies":8,"obsDt":"18 Apr 2023","obsTime":"08:30","subID":"S134177521","loc":{"locId":"L1918641","name":"Oliveira Park, Brownsville","latitude":25.9374284,"longitude":-97.52159,"countryCode":"US","countryName":"United States","subnational1Name":"Texas","subnational1Code":"US-TX","subnational2Code":"US-TX-061","subnational2Name":"Cameron","isHotspot":true,"lat":25.9374284,"lng":-97.52159,"locName":"Oliveira Park, Brownsville","hierarchicalName":"Oliveira Park, Brownsville, Cameron, Texas, US","locID":"L1918641"}},{"locId":"L23673737","subId":"S134169753","numSpecies":3,"obsDt":"18 Apr 2023","obsTime":"08:12","subID":"S134169753","loc":{"locId":"L23673737","name":"304 Boca Chica Boulevard, Brownsville, Texas, US (25.926, -97.516)","latitude":25.9262923,"longitude":-97.5160497,"countryCode":"US","countryName":"United States","subnational1Name":"Texas","subnational1Code":"US-TX","subnational2Code":"US-TX-061","subnational2Name":"Cameron","isHotspot":false,"lat":25.9262923,"lng":-97.5160497,"locName":"304 Boca Chica Boulevard, Brownsville, Texas, US (25.926, -97.516)","hierarchicalName":"304 Boca Chica Boulevard, Brownsville, Texas, US (25.926, -97.516), Cameron, Texas, US","locID":"L23673737"}},{"locId":"L3155464","subId":"S134170088","numSpecies":28,"obsDt":"18 Apr 2023","obsTime":"07:18","subID":"S134170088","loc":{"locId":"L3155464","name":"Brownsville--Resaca Blvd. area","latitude":25.9216333,"longitude":-97.5077283,"countryCode":"US","countryName":"United States","subnational1Name":"Texas","subnational1Code":"US-TX","subnational2Code":"US-TX-061","subnational2Name":"Cameron","isHotspot":true,"lat":25.9216333,"lng":-97.5077283,"locName":"Brownsville--Resaca Blvd. area","hierarchicalName":"Brownsville--Resaca Blvd. area, Cameron, Texas, US","locID":"L3155464"}},{"locId":"L2207293","subId":"S134164907","numSpecies":23,"obsDt":"18 Apr 2023","obsTime":"06:52","subID":"S134164907","loc":{"locId":"L2207293","name":"Old City Cemetery, Brownsville","latitude":25.9096192,"longitude":-97.500701,"countryCode":"US","countryName":"United States","subnational1Name":"Texas","subnational1Code":"US-TX","subnational2Code":"US-TX-061","subnational2Name":"Cameron","isHotspot":true,"lat":25.9096192,"lng":-97.500701,"locName":"Old City Cemetery, Brownsville","hierarchicalName":"Old City Cemetery, Brownsville, Cameron, Texas, US","locID":"L2207293"}},{"locId":"L278450","subId":"S134143213","numSpecies":4,"obsDt":"17 Apr 2023","obsTime":"19:47","subID":"S134143213","loc":{"locId":"L278450","name":"Univ. of Texas, RGV (Brownsville)--Resaca Habitat","latitude":25.8939907,"longitude":-97.4889322,"countryCode":"US","countryName":"United States","subnational1Name":"Texas","subnational1Code":"US-TX","subnational2Code":"US-TX-061","subnational2Name":"Cameron","isHotspot":true,"lat":25.8939907,"lng":-97.4889322,"locName":"Univ. of Texas, RGV (Brownsville)--Resaca Habitat","hierarchicalName":"Univ. of Texas, RGV (Brownsville)--Resaca Habitat, Cameron, Texas, US","locID":"L278450"}},{"locId":"L278450","subId":"S134141129","numSpecies":34,"obsDt":"17 Apr 2023","obsTime":"18:23","subID":"S134141129","loc":{"locId":"L278450","name":"Univ. of Texas, RGV (Brownsville)--Resaca Habitat","latitude":25.8939907,"longitude":-97.4889322,"countryCode":"US","countryName":"United States","subnational1Name":"Texas","subnational1Code":"US-TX","subnational2Code":"US-TX-061","subnational2Name":"Cameron","isHotspot":true,"lat":25.8939907,"lng":-97.4889322,"locName":"Univ. of Texas, RGV (Brownsville)--Resaca Habitat","hierarchicalName":"Univ. of Texas, RGV (Brownsville)--Resaca Habitat, Cameron, Texas, US","locID":"L278450"}},{"locId":"L2207310","subId":"S134134534","numSpecies":24,"obsDt":"17 Apr 2023","obsTime":"17:33","subID":"S134134534","loc":{"locId":"L2207310","name":"Univ. of Texas, RGV (Brownsville)","latitude":25.8974107,"longitude":-97.4903369,"countryCode":"US","countryName":"United States","subnational1Name":"Texas","subnational1Code":"US-TX","subnational2Code":"US-TX-061","subnational2Name":"Cameron","isHotspot":true,"lat":25.8974107,"lng":-97.4903369,"locName":"Univ. of Texas, RGV (Brownsville)","hierarchicalName":"Univ. of Texas, RGV (Brownsville), Cameron, Texas, US","locID":"L2207310"}},{"locId":"L3322724","subId":"S134104697","numSpecies":3,"obsDt":"17 Apr 2023","obsTime":"12:57","subID":"S134104697","loc":{"locId":"L3322724","name":"Cameron Co.--TX100--Aplomado Viewing Area","latitude":26.0913939,"longitude":-97.3272438,"countryCode":"US","countryName":"United States","subnational1Name":"Texas","subnational1Code":"US-TX","subnational2Code":"US-TX-061","subnational2Name":"Cameron","isHotspot":true,"lat":26.0913939,"lng":-97.3272438,"locName":"Cameron Co.--TX100--Aplomado Viewing Area","hierarchicalName":"Cameron Co.--TX100--Aplomado Viewing Area, Cameron, Texas, US","locID":"L3322724"}},{"locId":"L23666391","subId":"S134128774","numSpecies":27,"obsDt":"17 Apr 2023","obsTime":"11:17","subID":"S134128774","loc":{"locId":"L23666391","name":"7125 Lakeside Boulevard, Olmito, Texas, US (26.015, -97.537)","latitude":26.0148878,"longitude":-97.537108,"countryCode":"US","countryName":"United States","subnational1Name":"Texas","subnational1Code":"US-TX","subnational2Code":"US-TX-061","subnational2Name":"Cameron","isHotspot":false,"lat":26.0148878,"lng":-97.537108,"locName":"7125 Lakeside Boulevard, Olmito, Texas, US (26.015, -97.537)","hierarchicalName":"7125 Lakeside Boulevard, Olmito, Texas, US (26.015, -97.537), Cameron, Texas, US","locID":"L23666391"}},{"locId":"L23659265","subId":"S134090352","numSpecies":64,"obsDt":"17 Apr 2023","obsTime":"07:02","subID":"S134090352","loc":{"locId":"L23659265","name":"Texas 186, Texas, US (26.504, -97.491)","latitude":26.5040629,"longitude":-97.4914965,"countryCode":"US","countryName":"United States","subnational1Name":"Texas","subnational1Code":"US-TX","subnational2Code":"US-TX-489","subnational2Name":"Willacy","isHotspot":false,"lat":26.5040629,"lng":-97.4914965,"locName":"Texas 186, Texas, US (26.504, -97.491)","hierarchicalName":"Texas 186, Texas, US (26.504, -97.491), Willacy, Texas, US","locID":"L23659265"}},{"locId":"L23655771","subId":"S134069425","numSpecies":12,"obsDt":"17 Apr 2023","obsTime":"06:37","subID":"S134069425","loc":{"locId":"L23655771","name":"Texas 186, Texas, US (26.504, -97.489)","latitude":26.5036064,"longitude":-97.4890814,"countryCode":"US","countryName":"United States","subnational1Name":"Texas","subnational1Code":"US-TX","subnational2Code":"US-TX-489","subnational2Name":"Willacy","isHotspot":false,"lat":26.5036064,"lng":-97.4890814,"locName":"Texas 186, Texas, US (26.504, -97.489)","hierarchicalName":"Texas 186, Texas, US (26.504, -97.489), Willacy, Texas, US","locID":"L23655771"}},{"locId":"L23652095","subId":"S134050316","numSpecies":1,"obsDt":"16 Apr 2023","obsTime":"20:57","subID":"S134050316","loc":{"locId":"L23652095","name":"Texas 186, Texas, US (26.496, -97.522)","latitude":26.4957829,"longitude":-97.5219827,"countryCode":"US","countryName":"United States","subnational1Name":"Texas","subnational1Code":"US-TX","subnational2Code":"US-TX-489","subnational2Name":"Willacy","isHotspot":false,"lat":26.4957829,"lng":-97.5219827,"locName":"Texas 186, Texas, US (26.496, -97.522)","hierarchicalName":"Texas 186, Texas, US (26.496, -97.522), Willacy, Texas, US","locID":"L23652095"}},{"locId":"L23651970","subId":"S134049589","numSpecies":1,"obsDt":"16 Apr 2023","obsTime":"20:50","subID":"S134049589","loc":{"locId":"L23651970","name":"Texas 186, Raymondville, Texas, US (26.495, -97.534)","latitude":26.4951224,"longitude":-97.5339939,"countryCode":"US","countryName":"United States","subnational1Name":"Texas","subnational1Code":"US-TX","subnational2Code":"US-TX-489","subnational2Name":"Willacy","isHotspot":false,"lat":26.4951224,"lng":-97.5339939,"locName":"Texas 186, Raymondville, Texas, US (26.495, -97.534)","hierarchicalName":"Texas 186, Raymondville, Texas, US (26.495, -97.534), Willacy, Texas, US","locID":"L23651970"}},{"locId":"L23651884","subId":"S134049118","numSpecies":0,"obsDt":"16 Apr 2023","obsTime":"20:41","subID":"S134049118","loc":{"locId":"L23651884","name":"Texas 186, Raymondville, Texas, US (26.495, -97.542)","latitude":26.4946977,"longitude":-97.541554,"countryCode":"US","countryName":"United States","subnational1Name":"Texas","subnational1Code":"US-TX","subnational2Code":"US-TX-489","subnational2Name":"Willacy","isHotspot":false,"lat":26.4946977,"lng":-97.541554,"locName":"Texas 186, Raymondville, Texas, US (26.495, -97.542)","hierarchicalName":"Texas 186, Raymondville, Texas, US (26.495, -97.542), Willacy, Texas, US","locID":"L23651884"}},{"locId":"L23651762","subId":"S134048511","numSpecies":2,"obsDt":"16 Apr 2023","obsTime":"20:34","subID":"S134048511","loc":{"locId":"L23651762","name":"Texas 186, Raymondville, Texas, US (26.495, -97.549)","latitude":26.4947502,"longitude":-97.5492076,"countryCode":"US","countryName":"United States","subnational1Name":"Texas","subnational1Code":"US-TX","subnational2Code":"US-TX-489","subnational2Name":"Willacy","isHotspot":false,"lat":26.4947502,"lng":-97.5492076,"locName":"Texas 186, Raymondville, Texas, US (26.495, -97.549)","hierarchicalName":"Texas 186, Raymondville, Texas, US (26.495, -97.549), Willacy, Texas, US","locID":"L23651762"}},{"locId":"L23651634","subId":"S134047858","numSpecies":2,"obsDt":"16 Apr 2023","obsTime":"20:26","subID":"S134047858","loc":{"locId":"L23651634","name":"Texas 186, Raymondville, Texas, US (26.495, -97.555)","latitude":26.4948273,"longitude":-97.5553936,"countryCode":"US","countryName":"United States","subnational1Name":"Texas","subnational1Code":"US-TX","subnational2Code":"US-TX-489","subnational2Name":"Willacy","isHotspot":false,"lat":26.4948273,"lng":-97.5553936,"locName":"Texas 186, Raymondville, Texas, US (26.495, -97.555)","hierarchicalName":"Texas 186, Raymondville, Texas, US (26.495, -97.555), Willacy, Texas, US","locID":"L23651634"}},{"locId":"L23651530","subId":"S134047329","numSpecies":2,"obsDt":"16 Apr 2023","obsTime":"20:21","subID":"S134047329","loc":{"locId":"L23651530","name":"Texas 186, Raymondville, Texas, US (26.495, -97.56)","latitude":26.494514,"longitude":-97.5601741,"countryCode":"US","countryName":"United States","subnational1Name":"Texas","subnational1Code":"US-TX","subnational2Code":"US-TX-489","subnational2Name":"Willacy","isHotspot":false,"lat":26.494514,"lng":-97.5601741,"locName":"Texas 186, Raymondville, Texas, US (26.495, -97.56)","hierarchicalName":"Texas 186, Raymondville, Texas, US (26.495, -97.56), Willacy, Texas, US","locID":"L23651530"}},{"locId":"L23651453","subId":"S134046886","numSpecies":4,"obsDt":"16 Apr 2023","obsTime":"20:14","subID":"S134046886","loc":{"locId":"L23651453","name":"Texas 186, Raymondville, Texas, US (26.492, -97.565)","latitude":26.4918431,"longitude":-97.5648278,"countryCode":"US","countryName":"United States","subnational1Name":"Texas","subnational1Code":"US-TX","subnational2Code":"US-TX-489","subnational2Name":"Willacy","isHotspot":false,"lat":26.4918431,"lng":-97.5648278,"locName":"Texas 186, Raymondville, Texas, US (26.492, -97.565)","hierarchicalName":"Texas 186, Raymondville, Texas, US (26.492, -97.565), Willacy, Texas, US","locID":"L23651453"}},{"locId":"L6087334","subId":"S134045357","numSpecies":13,"obsDt":"16 Apr 2023","obsTime":"19:29","subID":"S134045357","loc":{"locId":"L6087334","name":"Raymondville Memorial Park Cemetery","latitude":26.4840633,"longitude":-97.751727,"countryCode":"US","countryName":"United States","subnational1Name":"Texas","subnational1Code":"US-TX","subnational2Code":"US-TX-489","subnational2Name":"Willacy","isHotspot":true,"lat":26.4840633,"lng":-97.751727,"locName":"Raymondville Memorial Park Cemetery","hierarchicalName":"Raymondville Memorial Park Cemetery, Willacy, Texas, US","locID":"L6087334"}},{"locId":"L113411","subId":"S134041946","numSpecies":9,"obsDt":"16 Apr 2023","obsTime":"18:41","subID":"S134041946","loc":{"locId":"L113411","name":"Kenedy","latitude":26.9429,"longitude":-97.64394,"countryCode":"US","countryName":"United States","subnational1Name":"Texas","subnational1Code":"US-TX","subnational2Code":"US-TX-261","subnational2Name":"Kenedy","isHotspot":false,"lat":26.9429,"lng":-97.64394,"locName":"Kenedy","hierarchicalName":"Kenedy, Kenedy, Texas, US","locID":"L113411"}},{"locId":"L113417","subId":"S134037116","numSpecies":4,"obsDt":"16 Apr 2023","obsTime":"18:19","subID":"S134037116","loc":{"locId":"L113417","name":"Kleberg","latitude":27.42793,"longitude":-97.64331,"countryCode":"US","countryName":"United States","subnational1Name":"Texas","subnational1Code":"US-TX","subnational2Code":"US-TX-273","subnational2Name":"Kleberg","isHotspot":false,"lat":27.42793,"lng":-97.64331,"locName":"Kleberg","hierarchicalName":"Kleberg, Kleberg, Texas, US","locID":"L113417"}},{"locId":"L113458","subId":"S134033734","numSpecies":6,"obsDt":"16 Apr 2023","obsTime":"17:51","subID":"S134033734","loc":{"locId":"L113458","name":"Nueces","latitude":27.77905,"longitude":-97.50105,"countryCode":"US","countryName":"United States","subnational1Name":"Texas","subnational1Code":"US-TX","subnational2Code":"US-TX-355","subnational2Name":"Nueces","isHotspot":false,"lat":27.77905,"lng":-97.50105,"locName":"Nueces","hierarchicalName":"Nueces, Nueces, Texas, US","locID":"L113458"}},{"locId":"L113485","subId":"S134031085","numSpecies":5,"obsDt":"16 Apr 2023","obsTime":"17:32","subID":"S134031085","loc":{"locId":"L113485","name":"San Patricio","latitude":27.99153,"longitude":-97.50644,"countryCode":"US","countryName":"United States","subnational1Name":"Texas","subnational1Code":"US-TX","subnational2Code":"US-TX-409","subnational2Name":"San Patricio","isHotspot":false,"lat":27.99153,"lng":-97.50644,"locName":"San Patricio","hierarchicalName":"San Patricio, San Patricio, Texas, US","locID":"L113485"}},{"locId":"L113429","subId":"S134028802","numSpecies":5,"obsDt":"16 Apr 2023","obsTime":"16:53","subID":"S134028802","loc":{"locId":"L113429","name":"Live Oak","latitude":28.42228,"longitude":-98.07767,"countryCode":"US","countryName":"United States","subnational1Name":"Texas","subnational1Code":"US-TX","subnational2Code":"US-TX-297","subnational2Name":"Live Oak","isHotspot":false,"lat":28.42228,"lng":-98.07767,"locName":"Live Oak","hierarchicalName":"Live Oak, Live Oak, Texas, US","locID":"L113429"}},{"locId":"L113287","subId":"S134023931","numSpecies":8,"obsDt":"16 Apr 2023","obsTime":"16:03","subID":"S134023931","loc":{"locId":"L113287","name":"Atascosa","latitude":28.92895,"longitude":-98.45509,"countryCode":"US","countryName":"United States","subnational1Name":"Texas","subnational1Code":"US-TX","subnational2Code":"US-TX-013","subnational2Name":"Atascosa","isHotspot":false,"lat":28.92895,"lng":-98.45509,"locName":"Atascosa","hierarchicalName":"Atascosa, Atascosa, Texas, US","locID":"L113287"}},{"locId":"L113362","subId":"S134017576","numSpecies":5,"obsDt":"16 Apr 2023","obsTime":"15:57","subID":"S134017576","loc":{"locId":"L113362","name":"Frio","latitude":28.86476,"longitude":-99.11075,"countryCode":"US","countryName":"United States","subnational1Name":"Texas","subnational1Code":"US-TX","subnational2Code":"US-TX-163","subnational2Name":"Frio","isHotspot":false,"lat":28.86476,"lng":-99.11075,"locName":"Frio","hierarchicalName":"Frio, Frio, Texas, US","locID":"L113362"}},{"locId":"L113443","subId":"S134016668","numSpecies":13,"obsDt":"16 Apr 2023","obsTime":"15:12","subID":"S134016668","loc":{"locId":"L113443","name":"Medina","latitude":29.39423,"longitude":-99.1126,"countryCode":"US","countryName":"United States","subnational1Name":"Texas","subnational1Code":"US-TX","subnational2Code":"US-TX-325","subnational2Name":"Medina","isHotspot":false,"lat":29.39423,"lng":-99.1126,"locName":"Medina","hierarchicalName":"Medina, Medina, Texas, US","locID":"L113443"}},{"locId":"L113512","subId":"S134010530","numSpecies":12,"obsDt":"16 Apr 2023","obsTime":"14:42","subID":"S134010530","loc":{"locId":"L113512","name":"Uvalde","latitude":29.35986,"longitude":-99.76454,"countryCode":"US","countryName":"United States","subnational1Name":"Texas","subnational1Code":"US-TX","subnational2Code":"US-TX-463","subnational2Name":"Uvalde","isHotspot":false,"lat":29.35986,"lng":-99.76454,"locName":"Uvalde","hierarchicalName":"Uvalde, Uvalde, Texas, US","locID":"L113512"}},{"locId":"L23643816","subId":"S134006620","numSpecies":2,"obsDt":"16 Apr 2023","obsTime":"14:07","subID":"S134006620","loc":{"locId":"L23643816","name":"Lost Maples SNA -- Campground","latitude":29.8096564,"longitude":-99.5725232,"countryCode":"US","countryName":"United States","subnational1Name":"Texas","subnational1Code":"US-TX","subnational2Code":"US-TX-019","subnational2Name":"Bandera","isHotspot":false,"lat":29.8096564,"lng":-99.5725232,"locName":"Lost Maples SNA -- Campground","hierarchicalName":"Lost Maples SNA -- Campground, Bandera, Texas, US","locID":"L23643816"}},{"locId":"L23643475","subId":"S134004879","numSpecies":30,"obsDt":"16 Apr 2023","obsTime":"10:46","subID":"S134004879","loc":{"locId":"L23643475","name":"Lost Maples SNA -- East Trail -- Campsite C - Parking","latitude":29.8204544,"longitude":-99.5808332,"countryCode":"US","countryName":"United States","subnational1Name":"Texas","subnational1Code":"US-TX","subnational2Code":"US-TX-019","subnational2Name":"Bandera","isHotspot":false,"lat":29.8204544,"lng":-99.5808332,"locName":"Lost Maples SNA -- East Trail -- Campsite C - Parking","hierarchicalName":"Lost Maples SNA -- East Trail -- Campsite C - Parking, Bandera, Texas, US","locID":"L23643475"}},{"locId":"L23643548","subId":"S134005266","numSpecies":35,"obsDt":"16 Apr 2023","obsTime":"08:33","subID":"S134005266","loc":{"locId":"L23643548","name":"Lost Maples SNA -- East Trail -- Campsite A - Campsite C","latitude":29.8261779,"longitude":-99.5783595,"countryCode":"US","countryName":"United States","subnational1Name":"Texas","subnational1Code":"US-TX","subnational2Code":"US-TX-019","subnational2Name":"Bandera","isHotspot":false,"lat":29.8261779,"lng":-99.5783595,"locName":"Lost Maples SNA -- East Trail -- Campsite A - Campsite C","hierarchicalName":"Lost Maples SNA -- East Trail -- Campsite A - Campsite C, Bandera, Texas, US","locID":"L23643548"}},{"locId":"L23643518","subId":"S134005112","numSpecies":32,"obsDt":"16 Apr 2023","obsTime":"07:12","subID":"S134005112","loc":{"locId":"L23643518","name":"Lost Maples SNA -- East Trail -- Day Parking To Campsite A","latitude":29.8229347,"longitude":-99.5691974,"countryCode":"US","countryName":"United States","subnational1Name":"Texas","subnational1Code":"US-TX","subnational2Code":"US-TX-019","subnational2Name":"Bandera","isHotspot":false,"lat":29.8229347,"lng":-99.5691974,"locName":"Lost Maples SNA -- East Trail -- Day Parking To Campsite A","hierarchicalName":"Lost Maples SNA -- East Trail -- Day Parking To Campsite A, Bandera, Texas, US","locID":"L23643518"}},{"locId":"L23623984","subId":"S133905324","numSpecies":17,"obsDt":"15 Apr 2023","obsTime":"19:00","subID":"S133905324","loc":{"locId":"L23623984","name":"Leakey Floral Cementery","latitude":29.7242238,"longitude":-99.7620821,"countryCode":"US","countryName":"United States","subnational1Name":"Texas","subnational1Code":"US-TX","subnational2Code":"US-TX-385","subnational2Name":"Real","isHotspot":false,"lat":29.7242238,"lng":-99.7620821,"locName":"Leakey Floral Cementery","hierarchicalName":"Leakey Floral Cementery, Real, Texas, US","locID":"L23623984"}},{"locId":"L527223","subId":"S133893339","numSpecies":11,"obsDt":"15 Apr 2023","obsTime":"17:22","subID":"S133893339","loc":{"locId":"L527223","name":"Junction--Easter Pageant Hill","latitude":30.4748638,"longitude":-99.7592926,"countryCode":"US","countryName":"United States","subnational1Name":"Texas","subnational1Code":"US-TX","subnational2Code":"US-TX-267","subnational2Name":"Kimble","isHotspot":true,"lat":30.4748638,"lng":-99.7592926,"locName":"Junction--Easter Pageant Hill","hierarchicalName":"Junction--Easter Pageant Hill, Kimble, Texas, US","locID":"L527223"}},{"locId":"L113444","subId":"S133879034","numSpecies":3,"obsDt":"15 Apr 2023","obsTime":"15:47","subID":"S133879034","loc":{"locId":"L113444","name":"Menard","latitude":30.89998,"longitude":-99.79812,"countryCode":"US","countryName":"United States","subnational1Name":"Texas","subnational1Code":"US-TX","subnational2Code":"US-TX-327","subnational2Name":"Menard","isHotspot":false,"lat":30.89998,"lng":-99.79812,"locName":"Menard","hierarchicalName":"Menard, Menard, Texas, US","locID":"L113444"}},{"locId":"L113328","subId":"S133875459","numSpecies":6,"obsDt":"15 Apr 2023","obsTime":"15:14","subID":"S133875459","loc":{"locId":"L113328","name":"Concho","latitude":31.33669,"longitude":-99.85728,"countryCode":"US","countryName":"United States","subnational1Name":"Texas","subnational1Code":"US-TX","subnational2Code":"US-TX-095","subnational2Name":"Concho","isHotspot":false,"lat":31.33669,"lng":-99.85728,"locName":"Concho","hierarchicalName":"Concho, Concho, Texas, US","locID":"L113328"}},{"locId":"L113480","subId":"S133871166","numSpecies":6,"obsDt":"15 Apr 2023","obsTime":"14:44","subID":"S133871166","loc":{"locId":"L113480","name":"Runnels","latitude":31.83111,"longitude":-99.97279,"countryCode":"US","countryName":"United States","subnational1Name":"Texas","subnational1Code":"US-TX","subnational2Code":"US-TX-399","subnational2Name":"Runnels","isHotspot":false,"lat":31.83111,"lng":-99.97279,"locName":"Runnels","hierarchicalName":"Runnels, Runnels, Texas, US","locID":"L113480"}},{"locId":"L113321","subId":"S133867027","numSpecies":8,"obsDt":"15 Apr 2023","obsTime":"14:11","subID":"S133867027","loc":{"locId":"L113321","name":"Coke","latitude":31.89286,"longitude":-100.52913,"countryCode":"US","countryName":"United States","subnational1Name":"Texas","subnational1Code":"US-TX","subnational2Code":"US-TX-081","subnational2Name":"Coke","isHotspot":false,"lat":31.89286,"lng":-100.52913,"locName":"Coke","hierarchicalName":"Coke, Coke, Texas, US","locID":"L113321"}},{"locId":"L632264","subId":"S133859761","numSpecies":11,"obsDt":"15 Apr 2023","obsTime":"12:57","subID":"S133859761","loc":{"locId":"L632264","name":"Maddin Prairie","latitude":32.29016,"longitude":-100.7894,"countryCode":"US","countryName":"United States","subnational1Name":"Texas","subnational1Code":"US-TX","subnational2Code":"US-TX-335","subnational2Name":"Mitchell","isHotspot":true,"lat":32.29016,"lng":-100.7894,"locName":"Maddin Prairie","hierarchicalName":"Maddin Prairie, Mitchell, Texas, US","locID":"L632264"}},{"locId":"L113488","subId":"S133848838","numSpecies":4,"obsDt":"15 Apr 2023","obsTime":"12:04","subID":"S133848838","loc":{"locId":"L113488","name":"Scurry","latitude":32.73956,"longitude":-100.91892,"countryCode":"US","countryName":"United States","subnational1Name":"Texas","subnational1Code":"US-TX","subnational2Code":"US-TX-415","subnational2Name":"Scurry","isHotspot":false,"lat":32.73956,"lng":-100.91892,"locName":"Scurry","hierarchicalName":"Scurry, Scurry, Texas, US","locID":"L113488"}},{"locId":"L113365","subId":"S133843495","numSpecies":6,"obsDt":"15 Apr 2023","obsTime":"11:27","subID":"S133843495","loc":{"locId":"L113365","name":"Garza","latitude":33.17234,"longitude":-101.30232,"countryCode":"US","countryName":"United States","subnational1Name":"Texas","subnational1Code":"US-TX","subnational2Code":"US-TX-169","subnational2Name":"Garza","isHotspot":false,"lat":33.17234,"lng":-101.30232,"locName":"Garza","hierarchicalName":"Garza, Garza, Texas, US","locID":"L113365"}},{"locId":"L113433","subId":"S133837227","numSpecies":2,"obsDt":"15 Apr 2023","obsTime":"11:23","subID":"S133837227","loc":{"locId":"L113433","name":"Lynn","latitude":33.17279,"longitude":-101.81715,"countryCode":"US","countryName":"United States","subnational1Name":"Texas","subnational1Code":"US-TX","subnational2Code":"US-TX-305","subnational2Name":"Lynn","isHotspot":false,"lat":33.17279,"lng":-101.81715,"locName":"Lynn","hierarchicalName":"Lynn, Lynn, Texas, US","locID":"L113433"}},{"locId":"L922129","subId":"S133836309","numSpecies":53,"obsDt":"15 Apr 2023","obsTime":"07:00","subID":"S133836309","loc":{"locId":"L922129","name":"Yellow House Canyon--CR7300 crossing","latitude":33.4925199,"longitude":-101.6235781,"countryCode":"US","countryName":"United States","subnational1Name":"Texas","subnational1Code":"US-TX","subnational2Code":"US-TX-303","subnational2Name":"Lubbock","isHotspot":true,"lat":33.4925199,"lng":-101.6235781,"locName":"Yellow House Canyon--CR7300 crossing","hierarchicalName":"Yellow House Canyon--CR7300 crossing, Lubbock, Texas, US","locID":"L922129"}},{"locId":"L113413","subId":"S134121570","numSpecies":2,"obsDt":"15 Apr 2023","subID":"S134121570","loc":{"locId":"L113413","name":"Kerr","latitude":30.03889,"longitude":-99.34206,"countryCode":"US","countryName":"United States","subnational1Name":"Texas","subnational1Code":"US-TX","subnational2Code":"US-TX-265","subnational2Name":"Kerr","isHotspot":false,"lat":30.03889,"lng":-99.34206,"locName":"Kerr","hierarchicalName":"Kerr, Kerr, Texas, US","locID":"L113413"}},{"locId":"L113349","subId":"S134121524","numSpecies":1,"obsDt":"15 Apr 2023","subID":"S134121524","loc":{"locId":"L113349","name":"Edwards","latitude":29.95554,"longitude":-100.22526,"countryCode":"US","countryName":"United States","subnational1Name":"Texas","subnational1Code":"US-TX","subnational2Code":"US-TX-137","subnational2Name":"Edwards","isHotspot":false,"lat":29.95554,"lng":-100.22526,"locName":"Edwards","hierarchicalName":"Edwards, Edwards, Texas, US","locID":"L113349"}},{"locId":"L113375","subId":"S133770559","numSpecies":1,"obsDt":"14 Apr 2023","obsTime":"20:32","subID":"S133770559","loc":{"locId":"L113375","name":"Hale","latitude":34.0719,"longitude":-101.8241,"countryCode":"US","countryName":"United States","subnational1Name":"Texas","subnational1Code":"US-TX","subnational2Code":"US-TX-189","subnational2Name":"Hale","isHotspot":false,"lat":34.0719,"lng":-101.8241,"locName":"Hale","hierarchicalName":"Hale, Hale, Texas, US","locID":"L113375"}},{"locId":"L113499","subId":"S133769544","numSpecies":5,"obsDt":"14 Apr 2023","obsTime":"20:04","subID":"S133769544","loc":{"locId":"L113499","name":"Swisher","latitude":34.53101,"longitude":-101.73163,"countryCode":"US","countryName":"United States","subnational1Name":"Texas","subnational1Code":"US-TX","subnational2Code":"US-TX-437","subnational2Name":"Swisher","isHotspot":false,"lat":34.53101,"lng":-101.73163,"locName":"Swisher","hierarchicalName":"Swisher, Swisher, Texas, US","locID":"L113499"}},{"locId":"L113471","subId":"S133767729","numSpecies":8,"obsDt":"14 Apr 2023","obsTime":"19:33","subID":"S133767729","loc":{"locId":"L113471","name":"Randall","latitude":34.96565,"longitude":-101.89811,"countryCode":"US","countryName":"United States","subnational1Name":"Texas","subnational1Code":"US-TX","subnational2Code":"US-TX-381","subnational2Name":"Randall","isHotspot":false,"lat":34.96565,"lng":-101.89811,"locName":"Randall","hierarchicalName":"Randall, Randall, Texas, US","locID":"L113471"}},{"locId":"L113468","subId":"S133765303","numSpecies":11,"obsDt":"14 Apr 2023","obsTime":"17:22","subID":"S133765303","loc":{"locId":"L113468","name":"Potter","latitude":35.40332,"longitude":-101.89181,"countryCode":"US","countryName":"United States","subnational1Name":"Texas","subnational1Code":"US-TX","subnational2Code":"US-TX-375","subnational2Name":"Potter","isHotspot":false,"lat":35.40332,"lng":-101.89181,"locName":"Potter","hierarchicalName":"Potter, Potter, Texas, US","locID":"L113468"}},{"locId":"L113451","subId":"S133751672","numSpecies":6,"obsDt":"14 Apr 2023","obsTime":"16:48","subID":"S133751672","loc":{"locId":"L113451","name":"Moore","latitude":35.83989,"longitude":-101.89399,"countryCode":"US","countryName":"United States","subnational1Name":"Texas","subnational1Code":"US-TX","subnational2Code":"US-TX-341","subnational2Name":"Moore","isHotspot":false,"lat":35.83989,"lng":-101.89399,"locName":"Moore","hierarchicalName":"Moore, Moore, Texas, US","locID":"L113451"}},{"locId":"L113491","subId":"S133747884","numSpecies":9,"obsDt":"14 Apr 2023","obsTime":"16:22","subID":"S133747884","loc":{"locId":"L113491","name":"Sherman","latitude":36.27382,"longitude":-101.89399,"countryCode":"US","countryName":"United States","subnational1Name":"Texas","subnational1Code":"US-TX","subnational2Code":"US-TX-421","subnational2Name":"Sherman","isHotspot":false,"lat":36.27382,"lng":-101.89399,"locName":"Sherman","hierarchicalName":"Sherman, Sherman, Texas, US","locID":"L113491"}},{"locId":"L113336","subId":"S133745080","numSpecies":4,"obsDt":"14 Apr 2023","obsTime":"16:13","subID":"S133745080","loc":{"locId":"L113336","name":"Dallam","latitude":36.27352,"longitude":-102.59648,"countryCode":"US","countryName":"United States","subnational1Name":"Texas","subnational1Code":"US-TX","subnational2Code":"US-TX-111","subnational2Name":"Dallam","isHotspot":false,"lat":36.27352,"lng":-102.59648,"locName":"Dallam","hierarchicalName":"Dallam, Dallam, Texas, US","locID":"L113336"}}]